City,Lat,Long,Max Temp,Humidity,Cloudiness,Wind Speed,Country,Date
dingle,10.9995,122.6711,81.64,83.0,91.0,6.33,PH,1615609098.0
busselton,-33.65,115.3333,70.0,49.0,0.0,3.0,AU,1615609363.0
guerrero negro,27.9769,-114.0611,55.56,64.0,0.0,12.77,MX,1615609363.0
bluff,-46.6,168.3333,64.99,71.0,0.0,5.99,NZ,1615609363.0
bredasdorp,-34.5322,20.0403,51.8,93.0,45.0,1.14,ZA,1615609364.0
keuruu,62.2667,24.7,24.01,93.0,90.0,4.61,FI,1615609364.0
kangaba,11.9333,-8.4167,68.67,19.0,4.0,5.99,ML,1615609364.0
ostrovnoy,68.0531,39.5131,9.82,93.0,100.0,16.4,RU,1615609100.0
carnarvon,-24.8667,113.6333,95.0,34.0,3.0,12.66,AU,1615609090.0
asfi,32.2994,-9.2372,55.47,87.0,3.0,20.07,MA,1615609365.0
cabo san lucas,22.8909,-109.9124,66.0,71.0,91.0,1.99,MX,1615609247.0
punta arenas,-53.15,-70.9167,48.2,57.0,40.0,24.16,CL,1615609365.0
shubarkuduk,49.1447,56.4872,0.5,88.0,78.0,5.57,KZ,1615609365.0
kodiak,57.79,-152.4072,23.0,39.0,1.0,18.41,US,1615609365.0
miri,4.4148,114.0089,86.0,79.0,40.0,5.75,MY,1615609366.0
vaini,-21.2,-175.2,78.8,83.0,75.0,9.22,TO,1615609366.0
tautira,-17.7333,-149.15,82.4,78.0,40.0,5.75,PF,1615609187.0
port elizabeth,-33.918,25.5701,64.4,94.0,0.0,3.44,ZA,1615609100.0
ushuaia,-54.8,-68.3,41.0,93.0,75.0,33.38,AR,1615609366.0
hobart,-42.8794,147.3294,69.8,60.0,90.0,16.11,AU,1615609162.0
qaanaaq,77.484,-69.3632,-0.35,75.0,99.0,4.12,GL,1615609366.0
talnakh,69.4865,88.3972,-9.31,96.0,100.0,19.24,RU,1615609367.0
avallon,47.4833,3.9,44.74,84.0,100.0,21.94,FR,1615609367.0
loukhi,66.0764,33.0381,12.49,96.0,75.0,4.74,RU,1615609337.0
ayolas,-27.4,-56.9,67.3,45.0,0.0,4.99,PY,1615609367.0
pacific grove,36.6177,-121.9166,53.6,76.0,75.0,4.61,US,1615609361.0
klaksvik,62.2266,-6.589,39.2,81.0,75.0,13.8,FO,1615609368.0
hilo,19.7297,-155.09,75.2,73.0,75.0,4.61,US,1615609115.0
new norfolk,-42.7826,147.0587,64.99,61.0,100.0,5.01,AU,1615609084.0
toora-khem,52.4675,96.11,33.04,82.0,71.0,3.09,RU,1615609368.0
airai,-8.9266,125.4092,70.81,83.0,92.0,0.54,TL,1615609368.0
dikson,73.5069,80.5464,-12.78,90.0,100.0,24.09,RU,1615609368.0
khasan,42.4308,130.6434,41.43,56.0,2.0,2.68,RU,1615609369.0
puerto penasco,31.3167,-113.5333,55.99,66.0,74.0,10.0,MX,1615609204.0
avarua,-21.2078,-159.775,80.6,89.0,90.0,2.3,CK,1615609369.0
wenling,28.3669,121.36,66.0,67.0,94.0,6.64,CN,1615609369.0
mahebourg,-20.4081,57.7,82.4,69.0,40.0,11.5,MU,1615609369.0
rikitea,-23.1203,-134.9692,80.04,74.0,94.0,8.03,PF,1615609370.0
gravdal,68.1214,13.5031,37.45,82.0,98.0,14.94,NO,1615609370.0
upernavik,72.7868,-56.1549,-2.31,65.0,20.0,1.86,GL,1615609370.0
nantucket,41.2835,-70.0995,46.99,66.0,0.0,24.61,US,1615609289.0
asau,46.4333,26.4,37.99,59.0,100.0,3.15,RO,1615609370.0
tahoua,14.8888,5.2692,77.0,19.0,0.0,2.3,NE,1615609371.0
tiksi,71.6872,128.8694,-11.92,94.0,100.0,8.43,RU,1615609371.0
safranbolu,41.2508,32.6942,31.84,75.0,37.0,1.99,TR,1615609371.0
nishihara,26.1842,127.7558,69.8,45.0,75.0,16.11,JP,1615609144.0
sinolon,6.2439,124.8144,87.8,66.0,20.0,19.57,PH,1615609371.0
kapaa,22.0752,-159.319,75.99,94.0,90.0,6.91,US,1615609372.0
kruisfontein,-34.0033,24.7314,69.1,53.0,42.0,6.02,ZA,1615609372.0
kerugoya,-0.4989,37.2803,58.68,74.0,24.0,3.96,KE,1615609372.0
jaranwala,31.3333,73.4333,72.1,34.0,99.0,5.99,PK,1615609372.0
fort nelson,58.8053,-122.7002,23.0,54.0,90.0,11.5,CA,1615609373.0
victoria,22.2855,114.1577,75.0,72.0,72.0,4.0,HK,1615609075.0
coruripe,-10.1256,-36.1756,77.07,83.0,99.0,8.72,BR,1615609373.0
macheng,31.1783,115.0319,57.99,68.0,95.0,1.57,CN,1615609373.0
atuona,-9.8,-139.0333,79.83,58.0,20.0,2.17,PF,1615609073.0
chivacoa,10.1603,-68.895,60.8,100.0,61.0,4.61,VE,1615609373.0
hithadhoo,-0.6,73.0833,83.43,63.0,9.0,6.06,MV,1615609374.0
yellowknife,62.456,-114.3525,0.0,71.0,1.0,10.36,CA,1615609374.0
kenora,49.8167,-94.4337,26.6,63.0,1.0,14.97,CA,1615609374.0
faanui,-16.4833,-151.75,83.35,63.0,64.0,0.96,PF,1615609374.0
albany,42.6001,-73.9662,36.0,37.0,1.0,1.99,US,1615609359.0
jiazi,22.8779,116.067,71.1,68.0,39.0,17.45,CN,1615609375.0
myanaung,18.2833,95.3167,96.84,14.0,0.0,6.53,MM,1615609375.0
hermanus,-34.4187,19.2345,62.01,87.0,23.0,4.0,ZA,1615609375.0
arraial do cabo,-22.9661,-42.0278,76.57,88.0,53.0,4.56,BR,1615609376.0
hasaki,35.7333,140.8333,57.2,94.0,75.0,19.57,JP,1615609141.0
bathsheba,13.2167,-59.5167,77.0,69.0,40.0,18.41,BB,1615609376.0
leningradskiy,69.3833,178.4167,18.7,82.0,100.0,9.75,RU,1615609376.0
itupiranga,-5.1347,-49.3267,75.2,100.0,0.0,2.19,BR,1615609376.0
elizabeth city,36.2946,-76.2511,64.0,63.0,20.0,4.61,US,1615609377.0
nioro,13.35,-15.75,71.6,14.0,0.0,6.82,GM,1615609377.0
butzow,53.85,11.9833,39.0,87.0,75.0,9.22,DE,1615609377.0
khandyga,62.6667,135.6,7.2,76.0,87.0,2.89,RU,1615609377.0
saldanha,-33.0117,17.9442,60.8,88.0,51.0,2.3,ZA,1615609102.0
miyako,39.6367,141.9525,43.75,87.0,100.0,4.54,JP,1615609378.0
nikolskoye,59.7035,30.7861,35.6,87.0,90.0,11.18,RU,1615609378.0
karratha,-20.7377,116.8463,94.95,41.0,5.0,9.06,AU,1615609378.0
cape town,-33.9258,18.4232,61.0,94.0,0.0,10.36,ZA,1615609232.0
vangaindrano,-23.35,47.6,72.55,84.0,10.0,5.61,MG,1615609378.0
filingue,14.3521,3.3168,73.85,15.0,5.0,11.52,NE,1615609379.0
georgetown,5.4112,100.3354,89.6,55.0,20.0,6.91,MY,1615609364.0
clyde river,70.4692,-68.5914,-4.0,84.0,90.0,14.97,CA,1615609379.0
havelock,34.8791,-76.9013,64.0,72.0,75.0,9.22,US,1615609161.0
xining,36.6167,101.7667,52.7,18.0,0.0,3.11,CN,1615609379.0
pisco,-13.7,-76.2167,70.0,94.0,10.0,4.61,PE,1615609379.0
tuktoyaktuk,69.4541,-133.0374,-7.6,77.0,90.0,16.11,CA,1615609380.0
havre-saint-pierre,50.2334,-63.5986,26.6,63.0,90.0,25.32,CA,1615609380.0
severo-kurilsk,50.6789,156.125,26.91,85.0,96.0,24.2,RU,1615609380.0
mataura,-46.1927,168.8643,64.99,71.0,0.0,5.99,NZ,1615609318.0
castro,-24.7911,-50.0119,60.04,91.0,21.0,3.44,BR,1615609381.0
kavieng,-2.5744,150.7967,84.4,61.0,62.0,5.44,PG,1615609381.0
ordu,40.9086,37.6845,33.8,69.0,0.0,3.44,TR,1615609381.0
antofagasta,-23.65,-70.4,66.2,88.0,0.0,6.91,CL,1615609382.0
aksum,14.1245,38.7244,56.61,53.0,2.0,5.99,ET,1615609382.0
prince rupert,54.3161,-130.3201,41.0,100.0,90.0,6.29,CA,1615609382.0
kaeo,-35.1,173.7833,71.01,76.0,41.0,3.0,NZ,1615609382.0
east london,-33.0153,27.9116,75.2,73.0,0.0,8.05,ZA,1615609084.0
tonj,7.2737,28.6822,77.38,43.0,47.0,2.95,SS,1615609383.0
saint-philippe,-21.3585,55.7679,80.01,78.0,75.0,13.8,RE,1615609383.0
puerto carreno,6.189,-67.4859,80.53,64.0,100.0,3.13,CO,1615609383.0
poum,-20.2333,164.0167,80.62,72.0,25.0,13.76,NC,1615609383.0
matay,28.419,30.7792,47.62,84.0,5.0,8.61,EG,1615609384.0
coahuayana,18.7333,-103.6833,70.39,70.0,0.0,3.22,MX,1615609384.0
klyuchi,52.2667,79.1667,-1.75,91.0,85.0,14.85,RU,1615609384.0
saint-francois,46.4154,3.9054,46.0,70.0,90.0,9.22,FR,1615609384.0
ponta do sol,32.6667,-17.1,55.99,67.0,100.0,1.99,PT,1615609385.0
klaipeda,55.7172,21.1175,39.2,81.0,90.0,12.66,LT,1615609385.0
barrow,71.2906,-156.7887,-20.2,63.0,1.0,16.11,US,1615609385.0
itigi,-5.7,34.4833,57.76,91.0,96.0,4.99,TZ,1615609385.0
mawlaik,23.6333,94.4167,94.95,21.0,0.0,2.17,MM,1615609386.0
jamestown,42.097,-79.2353,28.99,68.0,1.0,12.77,US,1615609386.0
longyearbyen,78.2186,15.6401,10.4,72.0,75.0,3.44,SJ,1615609386.0
severnyy,50.677,36.5532,21.2,93.0,90.0,11.18,RU,1615609386.0
saint-augustin,51.226,-58.6502,27.93,87.0,100.0,21.3,CA,1615609387.0
provideniya,64.3833,-173.3,30.4,96.0,100.0,32.82,RU,1615609176.0
thompson,55.7435,-97.8558,15.8,79.0,20.0,3.44,CA,1615609387.0
los llanos de aridane,28.6585,-17.9182,64.4,63.0,90.0,8.05,ES,1615609387.0
omboue,-1.5746,9.2618,72.97,93.0,100.0,6.69,GA,1615609387.0
pedras de fogo,-7.4019,-35.1164,77.0,88.0,20.0,3.44,BR,1615609388.0
yumen,40.2833,97.2,55.09,18.0,91.0,31.61,CN,1615609388.0
sisimiut,66.9395,-53.6735,10.44,83.0,83.0,6.51,GL,1615609121.0
zyryanka,65.75,150.85,-3.68,90.0,85.0,9.26,RU,1615609388.0
lompoc,34.6391,-120.4579,48.2,87.0,75.0,6.55,US,1615609388.0
ugoofaaru,5.6667,73.0,83.19,77.0,32.0,15.57,MV,1615609389.0
tres arroyos,-38.3739,-60.2798,64.27,40.0,33.0,14.09,AR,1615609389.0
luderitz,-26.6481,15.1594,65.26,71.0,0.0,4.03,NA,1615609389.0
santo nino,6.435,124.6975,87.8,66.0,20.0,19.57,PH,1615609390.0
sibolga,1.7427,98.7792,86.72,61.0,4.0,3.6,ID,1615609159.0
mehamn,71.0357,27.8492,17.82,84.0,98.0,7.74,NO,1615609390.0
port alfred,-33.5906,26.891,75.99,69.0,75.0,3.0,ZA,1615609390.0
gazli,40.1333,63.45,33.55,95.0,100.0,18.72,UZ,1615609390.0
matagami,49.7502,-77.6328,5.0,78.0,90.0,14.97,CA,1615609391.0
jaffna,9.6685,80.0074,82.45,70.0,62.0,12.41,LK,1615609391.0
geelong,-38.1471,144.3607,60.8,88.0,75.0,20.71,AU,1615609391.0
parainen,60.3067,22.301,35.01,100.0,75.0,8.05,FI,1615609391.0
butaritari,3.0707,172.7902,81.46,76.0,63.0,10.58,KI,1615609392.0
nouakchott,18.0858,-15.9785,68.0,24.0,9.0,11.5,MR,1615609392.0
itarema,-2.9248,-39.9167,77.67,85.0,100.0,7.99,BR,1615609392.0
rocha,-34.4833,-54.3333,59.04,85.0,9.0,2.15,UY,1615609392.0
norman wells,65.282,-126.8329,-4.0,65.0,75.0,11.5,CA,1615609392.0
zaigrayevo,51.8336,108.2703,28.4,69.0,20.0,2.24,RU,1615609393.0
acajutla,13.5928,-89.8275,80.22,67.0,52.0,6.58,SV,1615609337.0
sidney,-33.8679,151.2073,84.2,58.0,75.0,18.41,AU,1615609110.0
labuhan,-6.8844,112.2051,84.67,69.0,92.0,5.97,ID,1615609393.0
warrington,53.3925,-2.5802,42.8,81.0,90.0,20.71,GB,1615609393.0
cayenne,4.9333,-52.3333,73.4,94.0,75.0,3.6,GF,1615609394.0
kinross,-31.7187,115.7384,73.99,35.0,0.0,16.11,AU,1615609394.0
marawi,7.9986,124.2928,82.0,84.0,10.0,1.99,PH,1615609394.0
salalah,17.0151,54.0924,73.4,78.0,20.0,3.44,OM,1615609266.0
teahupoo,-17.8333,-149.2667,82.4,78.0,40.0,5.75,PF,1615609394.0
puerto ayora,-0.7393,-90.3518,75.99,92.0,3.0,4.94,EC,1615609395.0
weinan,34.5036,109.5089,59.0,72.0,0.0,11.18,CN,1615609395.0
skjervoy,70.0311,20.9714,27.23,67.0,100.0,12.26,NO,1615609395.0
nhulunbuy,-12.2333,136.7667,86.0,70.0,40.0,9.22,AU,1615609395.0
plouzane,48.3833,-4.6167,48.2,76.0,75.0,18.41,FR,1615609396.0
vardo,70.3705,31.1107,21.67,84.0,99.0,15.35,NO,1615609396.0
nome,64.5011,-165.4064,3.2,85.0,90.0,23.02,US,1615609396.0
yulara,-25.2406,130.9889,77.0,69.0,90.0,12.66,AU,1615609396.0
shache,38.4167,77.2406,55.67,24.0,84.0,5.84,CN,1615609397.0
sur,22.5667,59.5289,87.53,26.0,0.0,15.84,OM,1615609397.0
chapais,49.7834,-74.8492,5.0,78.0,90.0,16.11,CA,1615609118.0
paamiut,61.994,-49.6678,8.13,52.0,20.0,9.8,GL,1615609397.0
kloulklubed,7.0419,134.2556,84.2,74.0,75.0,8.05,PW,1615609397.0
ahipara,-35.1667,173.1667,67.98,82.0,68.0,4.9,NZ,1615609398.0
baykit,61.67,96.37,12.07,85.0,95.0,10.45,RU,1615609398.0
mar del plata,-38.0023,-57.5575,64.99,87.0,0.0,8.52,AR,1615609398.0
andenes,69.3143,16.1194,32.0,93.0,90.0,9.22,NO,1615609398.0
rivne,50.6231,26.2274,28.4,93.0,0.0,6.71,UA,1615609399.0
igarka,67.4667,86.5833,-6.09,96.0,100.0,22.24,RU,1615609399.0
port lincoln,-34.7333,135.8667,63.5,53.0,48.0,20.83,AU,1615609177.0
cherskiy,68.75,161.3,-6.83,92.0,93.0,16.37,RU,1615609399.0
west wendover,40.7391,-114.0733,41.0,33.0,1.0,12.66,US,1615609399.0
revadanda,18.5503,72.9278,87.8,33.0,87.0,8.05,IN,1615609400.0
richards bay,-28.783,32.0377,71.83,90.0,3.0,9.98,ZA,1615609400.0
taoudenni,22.6783,-3.9836,63.18,44.0,62.0,10.92,ML,1615609145.0
manokwari,-0.8667,134.0833,83.25,70.0,85.0,4.56,ID,1615609131.0
narsaq,60.9167,-46.05,12.2,44.0,20.0,5.75,GL,1615609400.0
basoda,23.85,77.9333,79.75,37.0,48.0,6.85,IN,1615609400.0
nanortalik,60.1432,-45.2371,15.22,61.0,87.0,8.88,GL,1615609401.0
sonoita,31.85,-112.8333,52.79,43.0,94.0,15.41,MX,1615609401.0
nikolsk,53.7189,46.0712,1.33,95.0,79.0,11.16,RU,1615609401.0
macae,-22.3708,-41.7869,75.2,100.0,75.0,3.44,BR,1615609401.0
gat,31.61,34.7642,51.01,100.0,18.0,1.99,IL,1615609402.0
camacha,33.0833,-16.3333,60.8,77.0,75.0,10.36,PT,1615609149.0
bethel,41.3712,-73.414,53.6,29.0,20.0,5.75,US,1615609402.0
torata,-17.0769,-70.8433,56.23,92.0,85.0,1.92,PE,1615609402.0
vilcun,-38.65,-72.2333,48.2,100.0,0.0,3.44,CL,1615609402.0
storm lake,42.6411,-95.2097,37.0,80.0,1.0,5.75,US,1615609403.0
aquiraz,-3.9014,-38.3911,82.4,74.0,75.0,8.05,BR,1615609403.0
tasiilaq,65.6145,-37.6368,10.4,92.0,63.0,4.61,GL,1615609403.0
phuket,8.0,98.25,87.8,58.0,20.0,6.91,TH,1615609321.0
mashhad,36.297,59.6062,35.6,100.0,90.0,25.32,IR,1615609337.0
teguldet,57.3064,88.1667,4.75,92.0,82.0,4.65,RU,1615609404.0
douentza,14.9951,-2.9517,61.43,28.0,46.0,6.53,ML,1615609404.0
kutulik,53.3508,102.7839,30.06,97.0,96.0,5.3,RU,1615609404.0
souillac,-20.5167,57.5167,82.4,69.0,40.0,11.5,MU,1615609404.0
tabuny,52.7773,78.7896,-2.76,93.0,89.0,14.92,RU,1615609277.0
barmer,25.75,71.3833,80.13,26.0,0.0,4.88,IN,1615609405.0
mlalo,-4.9333,38.9333,75.61,78.0,82.0,4.56,TZ,1615609405.0
pochutla,15.7432,-96.4661,79.0,69.0,0.0,3.78,MX,1615609405.0
palmer,42.1584,-72.3287,44.6,39.0,1.0,23.02,US,1615609405.0
coquimbo,-29.9533,-71.3436,60.8,82.0,90.0,4.61,CL,1615609313.0
tilichiki,60.4667,166.1,13.12,86.0,100.0,13.8,RU,1615609406.0
chuy,-33.6971,-53.4616,68.63,89.0,69.0,4.41,UY,1615609406.0
fairmont,39.4851,-80.1426,51.8,40.0,1.0,4.61,US,1615609406.0
adrar,20.5022,-10.0711,60.15,18.0,56.0,9.78,MR,1615609406.0
along,28.1667,94.7667,82.81,43.0,0.0,1.32,IN,1615609407.0
kawalu,-7.3817,108.2082,88.68,52.0,100.0,2.13,ID,1615609407.0
gilgit,35.9221,74.3087,44.87,74.0,90.0,1.28,PK,1615609407.0
jalu,29.0331,21.5482,53.01,49.0,0.0,7.09,LY,1615609407.0
ravar,31.2656,56.8055,69.12,20.0,0.0,37.87,IR,1615609408.0
novikovo,51.1537,37.8879,22.98,62.0,100.0,13.73,RU,1615609408.0
san quintin,30.4833,-115.95,52.63,70.0,0.0,12.35,MX,1615609408.0
bodden town,19.2833,-81.25,79.0,61.0,0.0,10.36,KY,1615609408.0
devarkonda,16.7,78.9333,85.6,16.0,0.0,7.92,IN,1615609408.0
sakakah,29.9697,40.2064,46.4,66.0,0.0,4.61,SA,1615609118.0
sitka,57.0531,-135.33,32.0,74.0,75.0,4.61,US,1615609409.0
constitucion,-35.3333,-72.4167,58.68,66.0,0.0,2.64,CL,1615609256.0
launceston,-41.45,147.1667,62.6,88.0,90.0,17.27,AU,1615609409.0
canutama,-6.5339,-64.3831,71.96,97.0,54.0,1.5,BR,1615609409.0
cabedelo,-6.9811,-34.8339,77.0,88.0,20.0,3.44,BR,1615609410.0
dwarka,22.2394,68.9678,78.62,59.0,28.0,7.14,IN,1615609410.0
pevek,69.7008,170.3133,8.13,94.0,100.0,6.51,RU,1615609410.0
tiznit,29.5833,-9.5,57.43,52.0,97.0,1.36,MA,1615609410.0
telde,27.9924,-15.4192,62.6,67.0,75.0,13.8,ES,1615609411.0
grand-santi,4.25,-54.3833,70.92,99.0,100.0,3.2,GF,1615609411.0
santa isabel do rio negro,-0.4139,-65.0192,72.14,98.0,100.0,2.01,BR,1615609411.0
portland,45.5234,-122.6762,50.0,57.0,1.0,0.81,US,1615609016.0
petropavlovsk-kamchatskiy,53.0452,158.6483,23.0,46.0,0.0,22.37,RU,1615609411.0
bambous virieux,-20.3428,57.7575,82.99,69.0,40.0,11.5,MU,1615609406.0
kahului,20.8947,-156.47,71.6,94.0,75.0,12.66,US,1615609113.0
katsuura,35.1333,140.3,60.8,88.0,75.0,16.11,JP,1615609412.0
olinda,-8.0089,-34.8553,80.6,69.0,20.0,8.05,BR,1615609399.0
pedasi,7.5333,-80.0333,78.35,80.0,36.0,18.97,PA,1615609412.0
torbay,47.6666,-52.7314,37.99,87.0,1.0,25.32,CA,1615609412.0
namibe,-15.1961,12.1522,74.5,87.0,100.0,5.37,AO,1615609131.0
isangel,-19.55,169.2667,86.0,70.0,40.0,17.27,VU,1615609412.0
quatre cocos,-20.2078,57.7625,82.99,69.0,40.0,11.5,MU,1615609413.0
caravelas,-17.7125,-39.2481,72.36,82.0,0.0,4.88,BR,1615609413.0
markova,48.6758,24.4138,32.68,89.0,100.0,4.79,UA,1615609413.0
chokurdakh,70.6333,147.9167,-16.49,94.0,0.0,2.17,RU,1615609413.0
owando,-0.4819,15.8999,70.83,96.0,88.0,2.57,CG,1615609414.0
erdenet,49.0333,104.0833,44.8,23.0,34.0,6.02,MN,1615609414.0
vanimo,-2.6741,141.3028,83.19,78.0,69.0,3.0,PG,1615609414.0
tigzirt,36.8886,4.1198,53.44,74.0,17.0,3.02,DZ,1615609414.0
soc trang,9.6033,105.98,86.0,66.0,40.0,10.36,VN,1615609148.0
potlogi,44.55,25.5833,37.0,93.0,100.0,3.49,RO,1615609415.0
salinopolis,-0.6136,-47.3561,77.31,87.0,100.0,6.87,BR,1615609415.0
geraldton,-28.7667,114.6,86.0,30.0,0.0,20.71,AU,1615609415.0
srednekolymsk,67.45,153.6833,-5.48,92.0,100.0,7.23,RU,1615609415.0
kaniama,-7.5667,24.1833,65.14,96.0,100.0,3.51,CD,1615609416.0
ko samui,9.5357,99.9357,87.8,62.0,40.0,11.5,TH,1615609416.0
poronaysk,49.2167,143.1167,32.85,95.0,20.0,5.88,RU,1615609416.0
xushan,30.1764,121.2457,64.99,48.0,72.0,4.47,CN,1615609416.0
coromandel,-18.4733,-47.2003,64.67,91.0,5.0,2.57,BR,1615609417.0
hamilton,39.1834,-84.5333,51.01,40.0,90.0,11.5,US,1615609417.0
samarinda,-0.5,117.15,89.91,56.0,89.0,3.94,ID,1615609417.0
pasighat,28.0667,95.3333,85.05,36.0,0.0,3.62,IN,1615609417.0
doha,25.2867,51.5333,71.6,40.0,0.0,23.02,QA,1615609418.0
yar-sale,66.8333,70.8333,10.04,86.0,100.0,19.75,RU,1615609418.0
alekseyevsk,57.8406,108.3492,25.23,72.0,100.0,11.81,RU,1615609418.0
labuan,5.2767,115.2417,80.6,83.0,40.0,8.05,MY,1615609418.0
tuatapere,-46.1333,167.6833,64.99,71.0,0.0,5.99,NZ,1615609419.0
bratsk,56.1325,101.6142,23.0,58.0,20.0,4.47,RU,1615609419.0
mujiayingzi,42.1167,118.7833,45.7,47.0,38.0,6.04,CN,1615609419.0
maniitsoq,65.4167,-52.9,14.45,90.0,100.0,9.95,GL,1615609419.0
killybegs,54.6333,-8.45,37.99,90.0,99.0,5.99,IE,1615609420.0
kedgwick,47.6446,-67.3434,22.55,80.0,19.0,9.22,CA,1615609420.0
beyneu,45.3167,55.2,18.97,54.0,100.0,12.03,KZ,1615609420.0
fenoarivo,-18.933,47.4354,60.8,82.0,20.0,5.75,MG,1615609420.0
wanning,18.8003,110.3967,78.44,70.0,92.0,7.76,CN,1615609421.0
fare,-16.7,-151.0167,83.19,67.0,55.0,4.07,PF,1615609421.0
sabinas,27.85,-101.1167,74.05,72.0,46.0,23.94,MX,1615609421.0
cairns,-16.9167,145.7667,91.99,51.0,24.0,13.8,AU,1615609421.0
galesong,-5.3166,119.3661,84.2,74.0,40.0,5.75,ID,1615609421.0
rancho santa margarita,33.6409,-117.6031,50.0,69.0,67.0,3.65,US,1615609422.0
vila,42.0304,-8.1588,37.0,93.0,56.0,1.99,PT,1615609422.0
methoni,36.8197,21.7049,48.99,87.0,20.0,6.11,GR,1615609422.0
oussouye,12.485,-16.5469,73.4,73.0,0.0,2.3,SN,1615609422.0
alofi,-19.0595,-169.9187,80.6,78.0,20.0,4.61,NU,1615609423.0
domoni,-12.2569,44.5319,80.53,79.0,48.0,2.53,KM,1615609423.0
lebu,-37.6167,-73.65,56.1,89.0,2.0,12.5,CL,1615609397.0
prevalje,46.5469,14.9208,37.99,95.0,96.0,1.99,SI,1615609423.0
nyurba,63.2842,118.3319,15.51,87.0,100.0,9.26,RU,1615609423.0
piacabucu,-10.4056,-36.4344,77.43,83.0,100.0,8.28,BR,1615609424.0
saint-joseph,-21.3667,55.6167,80.01,78.0,75.0,13.8,RE,1615609424.0
saint george,37.1041,-113.5841,39.0,93.0,90.0,6.91,US,1615609313.0
saskylakh,71.9167,114.0833,-16.35,90.0,9.0,16.75,RU,1615609424.0
aripuana,-9.1667,-60.6333,71.85,96.0,94.0,1.3,BR,1615609425.0
libertador general san martin,-23.8064,-64.7876,71.17,89.0,100.0,2.44,AR,1615609425.0
claresholm,50.0333,-113.5852,37.4,44.0,90.0,4.61,CA,1615609425.0
beringovskiy,63.05,179.3167,32.05,85.0,92.0,24.38,RU,1615609425.0
knysna,-34.0363,23.0471,60.8,88.0,0.0,5.75,ZA,1615609150.0
wahlstedt,53.95,10.2167,37.99,25.0,34.0,3.0,DE,1615609426.0
harper,4.375,-7.7169,78.53,88.0,56.0,7.87,LR,1615609426.0
makakilo city,21.3469,-158.0858,75.2,88.0,75.0,13.8,US,1615609316.0
te anau,-45.4167,167.7167,67.77,48.0,0.0,7.56,NZ,1615609426.0
cidreira,-30.1811,-50.2056,70.48,79.0,0.0,6.04,BR,1615609422.0
avera,33.194,-82.5271,57.99,88.0,1.0,4.61,US,1615609426.0
mampong,7.0627,-1.4001,73.24,90.0,93.0,2.04,GH,1615609427.0
itaberai,-16.0203,-49.8103,67.66,88.0,86.0,3.27,BR,1615609392.0
rincon,32.296,-81.2354,60.8,77.0,1.0,4.61,US,1615609427.0
port hardy,50.6996,-127.4199,46.4,76.0,90.0,14.97,CA,1615609200.0
mwinilunga,-11.7358,24.4293,63.01,97.0,99.0,3.13,ZM,1615609427.0
krasnyy kholm,58.0607,37.1203,19.49,92.0,100.0,15.99,RU,1615609428.0
khatanga,71.9667,102.5,-12.19,79.0,100.0,13.6,RU,1615609428.0
bengkulu,-3.8004,102.2655,85.19,62.0,76.0,4.83,ID,1615609428.0
alyangula,-13.8483,136.4192,89.6,62.0,75.0,6.91,AU,1615609428.0
cascavel,-24.9558,-53.4553,62.44,74.0,0.0,1.52,BR,1615609428.0
laranjeiras,-10.8064,-37.17,80.6,74.0,75.0,9.22,BR,1615609429.0
port hedland,-20.3167,118.5667,89.6,66.0,40.0,10.36,AU,1615609429.0
boa vista,2.8197,-60.6733,75.2,94.0,90.0,3.44,BR,1615609429.0
haines junction,60.7522,-137.5108,3.2,55.0,99.0,8.05,CA,1615609429.0
barranca,-10.75,-77.7667,70.2,88.0,0.0,4.76,PE,1615609430.0
foam lake,51.65,-103.5343,35.6,64.0,51.0,13.8,CA,1615609430.0
oriximina,-1.7656,-55.8661,73.69,94.0,100.0,1.28,BR,1615609430.0
nayagarh,20.1333,85.1,88.75,27.0,6.0,1.57,IN,1615609430.0
swakopmund,-22.6833,14.5333,57.2,94.0,1.0,2.3,NA,1615609431.0
noumea,-22.2763,166.4572,84.2,54.0,90.0,8.05,NC,1615609431.0
tessalit,20.1986,1.0114,58.23,44.0,34.0,6.2,ML,1615609431.0
daru,-9.0763,143.2092,84.29,70.0,96.0,7.65,PG,1615609431.0
bonavista,48.6499,-53.1147,37.99,80.0,20.0,13.8,CA,1615609432.0
kalmunai,7.4167,81.8167,83.3,74.0,27.0,10.67,LK,1615609432.0
moose factory,51.2585,-80.6094,-4.0,77.0,1.0,8.05,CA,1615609432.0
lagoa,39.05,-27.9833,59.09,83.0,100.0,17.25,PT,1615609432.0
isla mujeres,21.2311,-86.731,77.0,69.0,75.0,10.36,MX,1615609433.0
zorritos,-3.6805,-80.6782,78.78,77.0,100.0,5.68,PE,1615609433.0
naifaru,5.4444,73.3657,83.32,76.0,30.0,14.97,MV,1615609433.0
capaci,38.1711,13.2393,55.99,71.0,73.0,13.8,IT,1615609433.0
saint anthony,45.0205,-93.218,34.0,64.0,1.0,5.75,US,1615609434.0
atar,20.5169,-13.0499,61.21,20.0,46.0,8.05,MR,1615609434.0
burns lake,54.2331,-125.7533,42.8,56.0,91.0,10.36,CA,1615609434.0
malakal,9.5334,31.6605,80.08,24.0,0.0,2.91,SS,1615609434.0
ilulissat,69.2167,-51.1,6.8,66.0,53.0,3.44,GL,1615609435.0
chernyshevskiy,63.0128,112.4714,19.31,95.0,100.0,2.48,RU,1615609435.0
dir,35.2058,71.8756,55.42,51.0,78.0,4.29,PK,1615609435.0
huarmey,-10.0681,-78.1522,72.36,81.0,0.0,6.49,PE,1615609435.0
lermontovka,47.1453,134.3383,36.23,81.0,3.0,7.05,RU,1615609436.0
whittlesea,-32.1759,26.8244,59.83,58.0,1.0,2.44,ZA,1615609436.0
staroye drozhzhanoye,54.7266,47.5677,0.99,92.0,72.0,10.09,RU,1615609436.0
cap-aux-meules,47.3821,-61.8597,35.6,69.0,0.0,17.27,CA,1615609436.0
lorengau,-2.0226,147.2712,85.75,61.0,18.0,5.17,PG,1615609437.0
ukiah,39.1502,-123.2078,50.0,53.0,1.0,3.04,US,1615609437.0
grand baie,-20.0182,57.5802,82.99,67.0,28.0,10.0,MU,1615609437.0
curup,-3.4667,102.5333,83.5,55.0,93.0,1.9,ID,1615609437.0
arrifes,37.7667,-25.7,59.0,88.0,75.0,11.5,PT,1615609438.0
sulangan,11.1373,123.7228,80.35,75.0,84.0,1.66,PH,1615609438.0
takoradi,4.8845,-1.7554,80.22,84.0,100.0,7.61,GH,1615609438.0
san patricio,28.017,-97.5169,75.2,88.0,90.0,18.41,US,1615609438.0
kaitangata,-46.2817,169.8464,66.0,61.0,0.0,8.01,NZ,1615609439.0
pangody,65.85,74.4859,15.24,92.0,100.0,23.82,RU,1615609439.0
fortuna,40.5982,-124.1573,48.99,93.0,90.0,6.91,US,1615609439.0
lata,40.1629,-8.3327,48.99,93.0,55.0,3.0,PT,1615609439.0
bud,39.447,-86.1758,48.0,54.0,100.0,4.97,US,1615609440.0
whitehorse,60.7161,-135.0538,8.6,56.0,75.0,11.5,CA,1615609205.0
kirkwall,58.9848,-2.9587,37.4,81.0,0.0,16.11,GB,1615609440.0
odienne,9.51,-7.5692,73.78,25.0,16.0,1.86,CI,1615609440.0
juneau,58.3019,-134.4197,24.8,86.0,1.0,3.44,US,1615609301.0
katobu,-4.9408,122.5276,87.75,58.0,38.0,4.99,ID,1615609440.0
thunder bay,48.4001,-89.3168,19.4,58.0,75.0,4.61,CA,1615609251.0
kathu,7.9178,98.3332,87.8,58.0,20.0,6.91,TH,1615609441.0
nelson bay,-32.7167,152.15,93.0,58.0,40.0,6.91,AU,1615609441.0
valsamata,38.1667,20.6,46.4,87.0,40.0,4.61,GR,1615609441.0
kununurra,-15.7667,128.7333,93.2,62.0,99.0,8.05,AU,1615609442.0
sombreffe,50.5286,4.5984,44.6,87.0,75.0,23.02,BE,1615609442.0
ginir,7.1333,40.7,59.49,53.0,96.0,2.77,ET,1615609442.0
filadelfia,39.9523,-75.1638,57.2,17.0,20.0,21.85,US,1615609273.0
vanavara,60.34,102.2797,13.1,87.0,100.0,12.03,RU,1615609442.0
balakhta,55.38,91.6,12.2,91.0,100.0,5.82,RU,1615609443.0
inongo,-1.95,18.2667,72.52,91.0,100.0,5.99,CD,1615609443.0
saint-paul,-21.0096,55.2707,78.8,73.0,20.0,21.85,RE,1615609443.0
soyo,-6.1349,12.3689,80.37,84.0,100.0,9.82,AO,1615609443.0
varberg,57.1056,12.2508,37.0,93.0,99.0,14.0,SE,1615609443.0
tabou,4.423,-7.3528,77.41,90.0,67.0,6.8,CI,1615609444.0
matara,5.9485,80.5353,84.96,60.0,20.0,12.8,LK,1615609444.0
humaita,-7.5061,-63.0208,72.25,98.0,92.0,0.76,BR,1615609444.0
pitimbu,-7.4706,-34.8086,77.0,88.0,20.0,3.44,BR,1615609149.0
lasa,46.6166,10.7002,34.0,68.0,0.0,4.61,IT,1615609444.0
iqaluit,63.7506,-68.5145,-13.0,69.0,20.0,10.36,CA,1615609445.0
hofn,64.2539,-15.2082,36.0,57.0,100.0,26.46,IS,1615609439.0
shebunino,46.4339,141.8603,38.32,75.0,1.0,13.29,RU,1615609445.0
codrington,-38.2667,141.9667,59.58,73.0,100.0,20.0,AU,1615609445.0
yarmouth,41.7057,-70.2286,50.0,32.0,1.0,10.36,US,1615609446.0
enkhuizen,52.7,5.2833,43.0,95.0,100.0,23.78,NL,1615609446.0
yanam,16.7333,82.2167,82.4,65.0,0.0,2.3,IN,1615609446.0
springfield,37.2153,-93.2982,46.4,93.0,90.0,18.41,US,1615609269.0
marathon,44.9,-89.7668,28.4,50.0,1.0,3.44,US,1615609446.0
cabuyaro,4.2817,-72.794,83.93,50.0,99.0,3.09,CO,1615609447.0
ridgecrest,35.6225,-117.6709,50.0,43.0,90.0,10.36,US,1615609227.0
lac-megantic,45.5834,-70.8823,32.0,77.0,96.0,10.0,CA,1615609447.0
madang,-5.2246,145.7966,85.77,68.0,75.0,7.11,PG,1615609447.0
anadyr,64.75,177.4833,33.8,86.0,75.0,33.55,RU,1615609178.0
flinders,-34.5833,150.8552,86.0,69.0,43.0,5.01,AU,1615609447.0
inyonga,-6.7167,32.0667,60.06,94.0,91.0,3.04,TZ,1615609448.0
havoysund,70.9963,24.6622,21.2,73.0,90.0,4.61,NO,1615609448.0
concepcion del oro,24.6333,-101.4167,59.99,45.0,46.0,6.42,MX,1615609448.0
mecca,21.4267,39.8261,73.45,49.0,0.0,4.94,SA,1615609439.0
ucluelet,48.9329,-125.5528,44.01,89.0,100.0,5.7,CA,1615609448.0
bandarbeyla,9.4942,50.8122,77.72,68.0,5.0,7.34,SO,1615609449.0
simao dias,-10.7383,-37.8111,71.17,94.0,100.0,2.35,BR,1615609449.0
marsh harbour,26.5412,-77.0636,70.68,73.0,0.0,15.86,BS,1615609449.0
sola,-13.8833,167.55,84.2,79.0,75.0,5.75,VU,1615609449.0
okhotsk,59.3833,143.3,6.17,67.0,0.0,15.77,RU,1615609449.0
pierre,44.3683,-100.351,41.0,75.0,1.0,13.8,US,1615609450.0
raudeberg,61.9875,5.1352,37.99,86.0,74.0,15.03,NO,1615609450.0
uglich,57.5275,38.3317,18.91,90.0,100.0,15.03,RU,1615609450.0
ingham,42.6,-84.3833,32.0,47.0,1.0,3.44,US,1615609451.0
cap malheureux,-19.9842,57.6142,82.99,67.0,29.0,8.99,MU,1615609451.0
zhigansk,66.7697,123.3711,1.69,93.0,100.0,15.75,RU,1615609451.0
grand gaube,-20.0064,57.6608,82.99,67.0,29.0,8.99,MU,1615609451.0
esperance,-33.8667,121.9,66.2,39.0,86.0,10.36,AU,1615609451.0
hualmay,-11.0964,-77.6139,71.29,86.0,0.0,6.67,PE,1615609452.0
evensk,61.95,159.2333,10.02,72.0,95.0,7.25,RU,1615609452.0
chatellerault,46.8,0.5333,48.0,93.0,75.0,19.57,FR,1615609452.0
bomet,-0.7813,35.3416,53.26,87.0,62.0,3.62,KE,1615609452.0
liverpool,53.4106,-2.9779,42.8,81.0,90.0,20.71,GB,1615609343.0
kaberamaido,1.7389,33.1594,69.57,59.0,95.0,5.75,UG,1615609453.0
santiago,-33.4569,-70.6483,68.0,52.0,0.0,6.91,CL,1615609286.0
pangnirtung,66.1451,-65.7125,-11.29,98.0,88.0,1.52,CA,1615609453.0
matamoros,25.5333,-103.25,82.4,11.0,75.0,4.54,MX,1615609453.0
ribeira grande,38.5167,-28.7,60.69,80.0,100.0,17.74,PT,1615609453.0
shenjiamen,29.9576,122.298,52.16,72.0,94.0,6.22,CN,1615609454.0
balad,34.0164,44.1453,49.15,43.0,0.0,10.25,IQ,1615609454.0
yelizovo,53.1873,158.3805,23.0,46.0,0.0,22.37,RU,1615609454.0
namatanai,-3.6667,152.4333,83.97,67.0,77.0,6.62,PG,1615609454.0
miandrivazo,-19.5167,45.4667,76.77,78.0,0.0,4.36,MG,1615609455.0
kosa,59.9445,54.9977,3.65,93.0,5.0,8.84,RU,1615609455.0
tutoia,-2.7619,-42.2744,77.25,88.0,100.0,8.66,BR,1615609455.0
muros,42.7762,-9.0603,48.0,90.0,98.0,8.01,ES,1615609455.0
beloha,-25.1667,45.05,73.15,77.0,0.0,14.79,MG,1615609456.0
talaya,61.3833,152.75,1.04,83.0,100.0,13.53,RU,1615609456.0
kabinda,-6.1333,24.4833,66.52,94.0,100.0,2.51,CD,1615609456.0
praia da vitoria,38.7333,-27.0667,57.99,94.0,75.0,11.1,PT,1615609187.0
svetlyy,54.675,20.1347,39.2,75.0,0.0,11.18,RU,1615609456.0
oranjemund,-28.55,16.4333,63.93,75.0,7.0,3.83,NA,1615609457.0
ambilobe,-13.2,49.05,74.97,91.0,2.0,1.81,MG,1615609334.0
barreirinha,-2.7933,-57.07,74.55,94.0,90.0,1.48,BR,1615609457.0
tubmanburg,6.8708,-10.8172,75.67,96.0,62.0,1.52,LR,1615609457.0
opuwo,-18.0607,13.84,65.61,67.0,17.0,2.19,NA,1615609457.0
singapore,1.2897,103.8501,89.6,55.0,75.0,9.22,SG,1615609458.0
arlit,18.7369,7.3853,71.85,13.0,50.0,5.19,NE,1615609458.0
touros,-5.1989,-35.4608,77.0,83.0,40.0,3.44,BR,1615609458.0
abu kamal,34.4506,40.9171,45.1,34.0,0.0,14.03,SY,1615609458.0
buala,-8.145,159.5921,83.7,73.0,59.0,6.08,SB,1615609459.0
mount gambier,-37.8333,140.7667,59.0,72.0,90.0,21.85,AU,1615609399.0
chimbarongo,-34.7,-71.05,64.4,52.0,0.0,1.14,CL,1615609459.0
bereda,43.2686,-7.5406,44.01,96.0,86.0,11.99,ES,1615609459.0
fairbanks,64.8378,-147.7164,-11.99,70.0,1.0,1.01,US,1615609233.0
jieshi,22.8134,115.8257,79.0,65.0,38.0,17.29,CN,1615609459.0
maturin,9.75,-63.1767,70.92,94.0,58.0,3.96,VE,1615609460.0
port macquarie,-31.4333,152.9167,84.2,65.0,1.0,14.97,AU,1615609460.0
henties bay,-22.116,14.2845,64.04,87.0,1.0,5.46,NA,1615609412.0
saint albans,51.75,-0.3333,41.0,88.0,74.0,24.14,GB,1615609460.0
nemuro,43.3236,145.575,39.2,52.0,0.0,18.41,JP,1615609460.0
pangkalanbuun,-2.6833,111.6167,92.1,47.0,67.0,4.68,ID,1615609461.0
contamana,-7.3333,-75.0167,74.23,87.0,82.0,2.64,PE,1615609461.0
hobyo,5.3505,48.5268,79.57,71.0,53.0,15.08,SO,1615609461.0
benguela,-12.5763,13.4055,78.85,83.0,100.0,2.51,AO,1615609461.0
digby,44.6169,-65.7655,42.8,75.0,49.0,3.44,CA,1615609462.0
abalak,58.1286,68.5944,4.51,94.0,97.0,9.53,RU,1615609462.0
necochea,-38.5473,-58.7368,57.99,76.0,48.0,4.0,AR,1615609462.0
gurupi,-11.7292,-49.0686,72.66,90.0,79.0,2.42,BR,1615609462.0
izhmorskiy,56.194,86.6414,0.91,93.0,45.0,6.31,RU,1615609329.0
ueda,36.4,138.2667,50.0,93.0,75.0,1.14,JP,1615609463.0
ejura,7.3856,-1.3562,76.42,85.0,90.0,1.48,GH,1615609463.0
kempele,64.9131,25.5034,21.2,86.0,90.0,6.91,FI,1615609463.0
neuquen,-38.9516,-68.0591,59.0,82.0,0.0,6.85,AR,1615609463.0
pimenta bueno,-11.6725,-61.1936,71.98,97.0,94.0,1.43,BR,1615609464.0
wajima,37.4,136.9,50.0,81.0,75.0,5.75,JP,1615609464.0
nouadhibou,20.931,-17.0347,68.0,30.0,0.0,12.66,MR,1615609464.0
waounde,15.2637,-12.8682,77.0,29.0,0.0,9.22,SN,1615609464.0
virginia beach,36.8529,-75.978,63.0,63.0,90.0,6.91,US,1615609435.0
verkhoyansk,67.5447,133.385,-6.05,74.0,17.0,3.62,RU,1615609465.0
naze,28.3667,129.4833,68.0,60.0,75.0,14.97,JP,1615609332.0
tual,-5.6667,132.75,81.95,76.0,96.0,11.39,ID,1615609465.0
hakkari,37.5833,44.1667,11.82,82.0,13.0,5.3,TR,1615609173.0
tongliao,43.6125,122.2653,50.04,30.0,2.0,7.49,CN,1615609465.0
axim,4.8699,-2.2405,80.1,86.0,96.0,7.43,GH,1615609466.0
jupiter,26.9342,-80.0942,73.0,94.0,90.0,11.59,US,1615609466.0
mackay,-21.15,149.2,86.0,62.0,4.0,10.36,AU,1615609283.0
floro,61.5996,5.0328,35.6,93.0,75.0,21.85,NO,1615609466.0
shemonaikha,50.6328,81.9056,5.27,93.0,100.0,13.65,KZ,1615609466.0
oktyabrskiy,54.4815,53.471,3.36,92.0,0.0,6.53,RU,1615609467.0
russell,32.3502,-85.1999,60.8,88.0,1.0,3.44,US,1615609411.0
bima,-8.4667,118.7167,84.99,81.0,69.0,3.96,ID,1615609467.0
marzuq,14.4,46.4667,65.64,15.0,100.0,3.98,YE,1615609467.0
marsabit,2.3284,37.9899,62.96,77.0,49.0,18.37,KE,1615609467.0
akyab,20.15,92.9,84.15,45.0,0.0,2.26,MM,1615609468.0
nova olinda do norte,-3.8881,-59.0942,72.99,92.0,63.0,1.07,BR,1615609468.0
narok,-1.0783,35.8601,56.16,86.0,67.0,4.21,KE,1615609468.0
mpika,-11.8343,31.4529,61.3,97.0,99.0,2.93,ZM,1615609468.0
margate,51.3813,1.3862,43.0,75.0,100.0,5.99,GB,1615609469.0
ocampo,21.65,-101.5,57.2,54.0,19.0,8.19,MX,1615609469.0
oranjestad,12.524,-70.027,78.8,73.0,20.0,13.8,AW,1615609469.0
san cristobal,7.7669,-72.225,64.74,90.0,39.0,2.13,VE,1615609469.0
tahta,26.7693,31.5021,55.4,62.0,0.0,6.91,EG,1615609470.0
faya,18.3851,42.4509,57.2,71.0,0.0,6.78,SA,1615609470.0
vestmannaeyjar,63.4427,-20.2734,33.94,59.0,97.0,26.53,IS,1615609175.0
hirara,24.8,125.2833,69.8,60.0,75.0,13.8,JP,1615609470.0
kirakira,-10.4544,161.9205,84.31,72.0,48.0,3.78,SB,1615609470.0
novyy urengoy,66.0833,76.6333,14.41,91.0,100.0,22.5,RU,1615609471.0
santiago de cao,-7.9589,-79.2392,72.95,77.0,66.0,10.8,PE,1615609471.0
abu samrah,35.3029,37.1841,41.43,73.0,0.0,2.62,SY,1615609471.0
mamlyutka,54.9375,68.5394,-7.6,71.0,0.0,15.66,KZ,1615609471.0
sao jose da coroa grande,-8.8978,-35.1478,77.18,84.0,7.0,7.36,BR,1615609471.0
port-gentil,-0.7193,8.7815,78.73,75.0,100.0,6.85,GA,1615609472.0
padilla,3.2204,-76.3139,68.0,100.0,75.0,6.91,CO,1615609472.0
chambery,45.5667,5.9333,42.8,65.0,0.0,6.91,FR,1615609472.0
gizo,-8.103,156.8419,84.51,65.0,98.0,4.23,SB,1615609472.0
kiruna,67.8557,20.2251,19.4,93.0,90.0,4.61,SE,1615609473.0
veraval,20.9,70.3667,81.68,46.0,96.0,8.5,IN,1615609473.0
nkowakowa,-23.8878,30.2871,59.0,88.0,20.0,6.91,ZA,1615609473.0
zhuhai,22.2769,113.5678,75.2,73.0,20.0,12.66,CN,1615609473.0
kashi,39.4547,75.9797,51.8,25.0,40.0,6.71,CN,1615609474.0
bansi,27.1833,82.9333,85.51,25.0,100.0,16.15,IN,1615609336.0
brandfort,-28.7001,26.4597,59.0,82.0,0.0,3.44,ZA,1615609474.0
imbituba,-28.24,-48.6703,73.4,94.0,75.0,3.44,BR,1615609474.0
zaysan,47.4667,84.8667,30.56,94.0,100.0,5.1,KZ,1615609475.0
valdivia,-39.8142,-73.2459,48.2,93.0,0.0,2.3,CL,1615609424.0
ponta delgada,37.7333,-25.6667,59.0,88.0,75.0,11.5,PT,1615609475.0
birakan,49.0167,131.7,39.79,65.0,0.0,4.14,RU,1615609475.0
ola,59.5833,151.2833,9.64,71.0,4.0,5.93,RU,1615609475.0
puerto escondido,15.85,-97.0667,80.6,83.0,1.0,4.61,MX,1615609476.0
tikapur,28.5,81.1333,80.76,23.0,100.0,5.93,NP,1615609476.0
weligama,5.9667,80.4167,84.7,60.0,21.0,11.45,LK,1615609476.0
caucaia,-3.7361,-38.6531,82.4,74.0,75.0,8.05,BR,1615609476.0
guilin,25.2819,110.2864,60.8,82.0,90.0,2.24,CN,1615609477.0
breves,-1.6822,-50.4803,72.55,96.0,77.0,2.24,BR,1615609477.0
itacare,-14.2775,-38.9967,71.6,94.0,20.0,4.61,BR,1615609477.0
bureya,49.8133,129.8131,33.62,98.0,6.0,6.33,RU,1615609477.0
hvolsvollur,63.7533,-20.2243,28.74,54.0,94.0,14.14,IS,1615609478.0
burgeo,47.6167,-57.6152,33.58,84.0,6.0,21.79,CA,1615609478.0
houston,29.7633,-95.3633,70.0,88.0,1.0,10.36,US,1615609207.0
saint-pierre,-21.3393,55.4781,80.01,78.0,75.0,13.8,RE,1615609478.0
corat,40.5725,49.7064,33.8,69.0,75.0,9.22,AZ,1615609478.0
qaqortoq,60.7167,-46.0333,12.2,44.0,20.0,5.75,GL,1615609479.0
le portel,50.7056,1.5757,44.6,76.0,75.0,17.27,FR,1615609479.0
jumla,29.2747,82.1838,54.01,37.0,100.0,3.4,NP,1615609479.0
maningrida,-12.0667,134.2667,89.73,56.0,100.0,5.86,AU,1615609479.0
salamiyah,35.0113,37.0532,40.39,77.0,0.0,2.42,SY,1615609480.0
hambantota,6.1241,81.1185,84.2,79.0,20.0,12.66,LK,1615609186.0
samur,41.8253,48.486,26.49,83.0,77.0,5.84,RU,1615609480.0
quelimane,-17.8786,36.8883,77.0,94.0,75.0,2.3,MZ,1615609480.0
afikpo,5.8931,7.9374,78.12,78.0,100.0,3.83,NG,1615609480.0
college,64.8569,-147.8028,-11.99,70.0,1.0,0.98,US,1615609243.0
