City,Lat,Long,Max Temp,Humidity,Cloudiness,Wind Speed,Country,Date
rikitea,-23.1203,-134.9692,80.6,80,100,18.14,PF,1615166185
jiuquan,39.7432,98.5174,35.49,70,1,2.21,CN,1615166185
oparino,59.8518,48.2783,6.98,95,100,7.67,RU,1615166185
butaritari,3.0707,172.7902,80.74,81,85,12.68,KI,1615166185
nuuk,64.1835,-51.7216,26.6,93,90,4.61,GL,1615166185
ostrovnoy,68.0531,39.5131,-0.06,92,100,9.35,RU,1615166185
bluff,-46.6,168.3333,52,90,100,5.01,NZ,1615166185
urusha,54.05,122.9,8.53,94,100,1.54,RU,1615166186
ribeira grande,38.5167,-28.7,62.37,89,97,11.52,PT,1615166186
ushuaia,-54.8,-68.3,41,70,75,32.21,AR,1615166154
beyneu,45.3167,55.2,27.55,88,0,3.18,KZ,1615166186
prieska,-29.6641,22.7474,66.36,25,0,3.36,ZA,1615166186
olafsvik,64.8945,-23.7142,40.68,76,100,17.85,IS,1615166186
yellowknife,62.456,-114.3525,10.4,61,90,20.71,CA,1615166186
castro,-24.7911,-50.0119,61.34,97,100,6.49,BR,1615166186
asau,46.4333,26.4,32,68,0,4.61,RO,1615166186
avarua,-21.2078,-159.775,84.2,79,20,8.05,CK,1615166187
tiksi,71.6872,128.8694,-15.52,87,100,6.22,RU,1615166187
busselton,-33.65,115.3333,66.99,82,89,3,AU,1615166187
vaini,-21.2,-175.2,84.2,74,40,12.66,TO,1615166187
hassleholm,56.1591,13.7664,26.6,59,0,6.91,SE,1615166188
new norfolk,-42.7826,147.0587,70,42,100,3,AU,1615166188
kilinochchi,9.3961,80.3982,77.16,91,28,6.78,LK,1615166188
sobolevo,54.4299,31.8996,19.89,96,54,11.72,RU,1615166188
albany,42.6001,-73.9662,26.01,35,10,14,US,1615166131
nanortalik,60.1432,-45.2371,30.52,95,100,17.05,GL,1615166188
illoqqortoormiut,,,,,,,,
tuktoyaktuk,69.4541,-133.0374,-14.8,76,75,16.11,CA,1615166188
atuona,-9.8,-139.0333,79.83,75,41,12.95,PF,1615166189
marienburg,54.0359,19.0266,28,89,63,5.01,PL,1615166189
cabo san lucas,22.8909,-109.9124,73,56,20,5.75,MX,1615165981
lieksa,63.3167,30.0167,-1.05,90,49,9.28,FI,1615166189
port alfred,-33.5906,26.891,68,87,4,8.5,ZA,1615166189
yerbogachen,61.2767,108.0108,11.35,94,67,12.95,RU,1615166189
dikson,73.5069,80.5464,-18.56,88,100,9.04,RU,1615166189
sentyabrskiy,,,,,,,,
ust-tsilma,65.441,52.1498,-20.9,87,94,4.07,RU,1615166189
mar del plata,-38.0023,-57.5575,73,73,40,3.44,AR,1615166189
hilo,19.7297,-155.09,75.2,73,90,5.75,US,1615165999
katsuura,35.1333,140.3,45,89,100,11.01,JP,1615166190
tuatapere,-46.1333,167.6833,52,90,100,5.01,NZ,1615166190
hermanus,-34.4187,19.2345,60.01,92,100,6.53,ZA,1615166190
pimentel,-6.8367,-79.9342,75.2,78,0,16.11,PE,1615166190
belushya guba,,,,,,,,
livingston,55.9029,-3.5226,45,93,75,10.36,GB,1615166190
bull savanna,17.8868,-77.5902,74.97,79,47,4.76,JM,1615166190
luis correia,-2.8792,-41.6669,79.21,81,98,8.75,BR,1615166191
klaksvik,62.2266,-6.589,41,100,90,3.71,FO,1615166191
raducaneni,46.95,27.9333,32,59,0,3.44,RO,1615166191
jamestown,42.097,-79.2353,21.99,94,1,2.48,US,1615165976
carnarvon,-24.8667,113.6333,82.4,89,0,11.5,AU,1615166191
barawe,,,,,,,,
oranjemund,-28.55,16.4333,62.28,94,21,4.14,NA,1615166192
agar,23.7,76.0167,65.77,28,0,9.51,IN,1615166192
manado,1.487,124.8455,84.2,70,40,2.3,ID,1615165962
buraydah,26.326,43.975,57.2,51,0,4.61,SA,1615166174
mansa,29.9833,75.3833,57.54,67,0,7.83,IN,1615166192
lubango,-14.9172,13.4925,60.71,82,97,2.33,AO,1615166193
may pen,17.9645,-77.2451,80.6,74,40,2.3,JM,1615166193
kismayo,-0.3582,42.5454,77.61,82,12,14.23,SO,1615166193
nakamura,32.9833,132.9333,52.14,82,100,1.79,JP,1615166194
amos,48.5669,-78.1162,1.4,60,20,2.15,CA,1615166194
rio grande,-32.035,-52.0986,71.01,86,0,9.64,BR,1615166194
dossor,47.5272,52.9811,27.1,86,0,9.57,KZ,1615166194
lebu,-37.6167,-73.65,58.84,90,49,13.76,CL,1615166194
gondanglegi,-7.7479,112.0132,80.1,78,14,5.44,ID,1615166194
punta arenas,-53.15,-70.9167,42.01,75,20,6.91,CL,1615165928
peniche,39.3558,-9.3811,53.01,71,100,8.99,PT,1615166195
tidore,,,,,,,,
tokur,53.1333,132.9,-2.04,92,100,6.2,RU,1615166195
georgetown,5.4112,100.3354,80.6,88,20,2.3,MY,1615165968
karkaralinsk,,,,,,,,
darnah,32.767,22.6367,58.71,81,0,9.31,LY,1615166195
marcona,,,,,,,,
gulshat,,,,,,,,
lexington,37.9887,-84.4777,42.8,26,1,2.3,US,1615165935
chotila,22.4167,71.1833,73.4,73,0,5.75,IN,1615166196
salalah,17.0151,54.0924,73.4,56,0,3.44,OM,1615166196
manzanillo,20.3433,-77.1167,74.5,77,4,7.49,CU,1615166196
zapolyarnyy,69.4154,30.8136,6.8,85,90,8.05,RU,1615166196
barentsburg,,,,,,,,
uyuni,-20.4597,-66.825,44.64,81,100,10.27,BO,1615166197
ateptsevo,55.3236,36.75,19.4,86,75,8.95,RU,1615166197
gimli,50.6336,-96.9907,39.2,81,100,9.22,CA,1615166018
port elizabeth,-33.918,25.5701,66.99,81,83,1.99,ZA,1615166197
samusu,,,,,,,,
cape town,-33.9258,18.4232,62.6,72,0,11.5,ZA,1615166197
lagoa,39.05,-27.9833,60.15,97,94,11.86,PT,1615166197
taolanaro,,,,,,,,
barra do garcas,-15.89,-52.2567,72.18,93,100,2.73,BR,1615166197
san quintin,30.4833,-115.95,58.17,73,100,13.04,MX,1615166197
sitka,57.0531,-135.33,46.4,53,75,8.05,US,1615166049
mataura,-46.1927,168.8643,52,90,100,5.01,NZ,1615166198
karpathos,35.507,27.2132,53.6,66,0,9.22,GR,1615166198
kwinana,-32.25,115.7667,77,68,100,14.97,AU,1615166112
severo-kurilsk,50.6789,156.125,16.72,92,100,28.9,RU,1615166198
kapaa,22.0752,-159.319,75.2,69,75,16.11,US,1615166198
takoradi,4.8845,-1.7554,79.68,88,10,8.61,GH,1615166198
te anau,-45.4167,167.7167,57.74,48,99,0.87,NZ,1615166198
mbeya,-8.9,33.45,60.04,91,100,0.94,TZ,1615166198
bethel,41.3712,-73.414,30,51,31,3,US,1615166198
bogovarovo,58.9785,47.0246,13.03,96,100,8.46,RU,1615166198
lavrentiya,65.5833,-171,32.36,97,100,33.13,RU,1615166198
east london,-33.0153,27.9116,68.47,79,29,4,ZA,1615166199
bihar,47.15,21.9167,28.4,74,0,6.91,RO,1615166199
saint george,37.1041,-113.5841,71.01,13,1,6.91,US,1615165980
warragul,-38.1667,145.9333,66,79,99,8.01,AU,1615166199
esperance,-33.8667,121.9,66.2,77,90,8.05,AU,1615166199
hobart,-42.8794,147.3294,70,59,75,10.36,AU,1615166199
dryden,49.7833,-92.7503,44.6,61,90,9.22,CA,1615166169
bermeo,43.4209,-2.7215,43,100,0,2.3,ES,1615166200
yagoua,10.3411,15.2329,73.67,19,0,7.58,CM,1615166200
sovetskiy,61.3614,63.5842,-8.5,92,92,1.59,RU,1615166200
college,64.8569,-147.8028,17.01,85,40,1.7,US,1615166200
gorontalo,0.5412,123.0595,83.82,67,100,2.19,ID,1615166200
sinnamary,5.3833,-52.95,77.86,87,55,13.42,GF,1615166200
bredasdorp,-34.5322,20.0403,60.8,82,100,4.61,ZA,1615166200
khatanga,71.9667,102.5,-29.83,85,96,4.09,RU,1615166200
kodiak,57.79,-152.4072,44.6,49,1,8.05,US,1615166201
karratha,-20.7377,116.8463,85.23,66,2,11.61,AU,1615166201
faanui,-16.4833,-151.75,82.44,78,100,18.3,PF,1615166201
okato,-39.2,173.8833,64,65,91,10,NZ,1615166201
bilozerka,46.6248,32.4425,34.3,88,90,12.46,UA,1615166202
chornobay,49.6708,32.3239,29.62,95,63,14.97,UA,1615166202
upernavik,72.7868,-56.1549,-18.74,81,0,13.11,GL,1615166202
zhigansk,66.7697,123.3711,-10.43,89,100,10.8,RU,1615166202
namibe,-15.1961,12.1522,76.62,79,71,5.03,AO,1615166202
aberdeen,57.1437,-2.0981,42.8,93,90,1.14,GB,1615166202
antalaha,-14.9003,50.2788,73.81,87,74,4.12,MG,1615166202
oceanside,33.1959,-117.3795,59,77,90,9.22,US,1615166070
puerto ayora,-0.7393,-90.3518,81,89,49,7,EC,1615166202
nizhneyansk,,,,,,,,
kloulklubed,7.0419,134.2556,78.8,94,90,5.75,PW,1615166202
barrow,71.2906,-156.7887,-9.4,70,90,20.71,US,1615166202
contamana,-7.3333,-75.0167,74.08,96,100,3.74,PE,1615166203
komsomolskiy,40.4272,71.7189,37.4,81,80,4.61,UZ,1615166203
verkhovazhye,60.7472,42.0465,9.82,95,100,10.22,RU,1615166203
verkhoyansk,67.5447,133.385,-15.5,80,95,2.68,RU,1615166040
san patricio,28.017,-97.5169,62.6,51,40,12.66,US,1615166203
mehamn,71.0357,27.8492,22.01,94,99,10.63,NO,1615166203
charters towers,-20.1,146.2667,83.05,50,0,15.64,AU,1615166203
saskylakh,71.9167,114.0833,-31.95,83,31,4.05,RU,1615166203
shitanjing,39.2342,106.3439,42.37,62,0,2.01,CN,1615166204
lata,40.1629,-8.3327,52,84,42,0.89,PT,1615166204
gilbues,-9.8317,-45.3439,74.89,83,100,2.73,BR,1615166204
krasnoselkup,65.7,82.4667,-10.7,90,98,5.28,RU,1615166204
koster,-25.863,26.8976,60.98,33,0,2.17,ZA,1615166204
qaanaaq,77.484,-69.3632,-13.2,63,0,7.87,GL,1615166205
yar-sale,66.8333,70.8333,-24.16,86,100,7.99,RU,1615166205
rio gallegos,-51.6226,-69.2181,46.4,46,20,16.11,AR,1615166205
pittsburg,38.028,-121.8847,64,45,1,5.75,US,1615166205
saint-philippe,-21.3585,55.7679,77,83,16,5.75,RE,1615166205
awjilah,29.1081,21.2869,58.6,39,0,3.89,LY,1615166205
korhogo,9.45,-5.6333,81.25,55,67,6.17,CI,1615166206
labuan,5.2767,115.2417,84.2,70,20,4.61,MY,1615166206
elat,29.5581,34.9482,58.32,60,0,9.78,IL,1615166206
talnakh,69.4865,88.3972,-12.01,89,100,4.16,RU,1615166206
parkes,-33.1333,148.1833,82,49,100,1.01,AU,1615166206
boralday,43.3578,76.8594,32,86,75,4.47,KZ,1615166207
kavaratti,10.5669,72.642,82.08,68,34,5.86,IN,1615166207
hamilton,39.1834,-84.5333,41,60,1,0.76,US,1615166207
lokosovo,61.1333,74.8167,8.91,96,100,8.5,RU,1615166207
constitucion,-35.3333,-72.4167,63.57,81,0,14.47,CL,1615166207
nantucket,41.2835,-70.0995,26.01,68,1,3.51,US,1615166019
kaitangata,-46.2817,169.8464,57,56,100,17,NZ,1615166208
chillan,-36.6066,-72.1034,73.4,56,71,6.91,CL,1615166140
avera,33.194,-82.5271,46.4,39,1,2.48,US,1615166208
saleaula,,,,,,,,
luderitz,-26.6481,15.1594,65.12,64,0,13.62,NA,1615166208
tasiilaq,65.6145,-37.6368,33.26,94,100,23,GL,1615166208
kutum,14.2,24.6667,59.22,23,0,9.13,SD,1615166209
urucui,-7.2294,-44.5561,76.12,89,74,1.57,BR,1615166209
ha giang,22.8333,104.9833,69.62,79,74,2.73,VN,1615166209
attawapiskat,,,,,,,,
tudela,42.0617,-1.6045,46.4,87,90,11.5,ES,1615166209
harnosand,62.6323,17.9379,25,63,0,6.91,SE,1615166209
yeppoon,-23.1333,150.7333,87.8,42,40,6.91,AU,1615166209
tanout,14.9709,8.8879,73.71,17,0,9.01,NE,1615166209
chuy,-33.6971,-53.4616,67.5,87,0,7.92,UY,1615166209
cidreira,-30.1811,-50.2056,73.35,74,2,10.8,BR,1615166210
kahului,20.8947,-156.47,80.6,54,40,21.85,US,1615166210
tabiauea,,,,,,,,
sulangan,11.1373,123.7228,81.09,75,100,13.89,PH,1615166210
great yarmouth,52.6083,1.7305,39.2,75,90,4.61,GB,1615166210
lompoc,34.6391,-120.4579,55.4,67,20,8.05,US,1615166210
vila franca do campo,37.7167,-25.4333,60.8,94,40,13.8,PT,1615166211
ola,59.5833,151.2833,-4.61,74,0,3.06,RU,1615166211
isangel,-19.55,169.2667,82.4,69,40,8.05,VU,1615166211
bandarbeyla,9.4942,50.8122,74.34,82,98,11.07,SO,1615166211
dicabisagan,17.0818,122.4157,79.99,62,2,7.18,PH,1615166211
sao filipe,14.8961,-24.4956,70.27,76,0,14.43,CV,1615166212
tual,-5.6667,132.75,83.05,76,62,12.24,ID,1615166212
half moon bay,37.4636,-122.4286,55.4,76,20,12.66,US,1615166212
dingle,10.9995,122.6711,82.18,70,57,13.18,PH,1615166212
kurumkan,54.3,110.3,25.27,92,90,9.22,RU,1615166212
husavik,66.0449,-17.3389,30.2,74,0,4.61,IS,1615166212
iqaluit,63.7506,-68.5145,-0.4,71,90,5.75,CA,1615166213
bronnoysund,65.4625,12.1997,32,80,90,6.91,NO,1615166213
victoria,22.2855,114.1577,66.99,84,67,18.34,HK,1615165972
floro,61.5996,5.0328,32,80,40,9.22,NO,1615166213
port blair,11.6667,92.75,80.98,74,0,8.7,IN,1615166213
hasaki,35.7333,140.8333,45,93,75,11.5,JP,1615166214
moree,-29.4667,149.85,86,48,75,17.27,AU,1615166214
arraias,-12.9288,-46.9437,70.47,89,56,0.54,BR,1615166214
bara,10.3744,10.7288,76.64,15,5,8.55,NG,1615166214
amderma,,,,,,,,
eloy,32.7559,-111.5548,84,9,1,4.61,US,1615166215
palabuhanratu,,,,,,,,
jalu,29.0331,21.5482,57.36,45,0,3.22,LY,1615166215
porto santo,33.072,-16.3415,59,94,75,4.61,PT,1615166215
harper,4.375,-7.7169,78.8,87,97,6.73,LR,1615166215
perth,-31.9333,115.8333,77,64,20,17.27,AU,1615165927
cozumel,20.5083,-86.9458,77,65,40,8.05,MX,1615166183
geraldton,-28.7667,114.6,89.6,37,0,20.71,AU,1615166215
atar,20.5169,-13.0499,64.51,30,0,9.44,MR,1615166188
cuenca,-2.8833,-78.9833,60.8,72,75,4.61,EC,1615166155
hofn,64.2539,-15.2082,37.96,75,100,8.52,IS,1615166216
the pas,53.8251,-101.2541,37.4,60,1,2.3,CA,1615166216
qafsah,,,,,,,,
leh,34.1667,77.5833,22.57,87,100,4.07,IN,1615166216
arbuzynka,47.9097,31.3196,29.35,89,61,7.65,UA,1615166216
torbay,47.6666,-52.7314,28,74,75,10.36,CA,1615166216
narsaq,60.9167,-46.05,32,74,75,13.8,GL,1615166216
tago,9.0211,126.2317,80.76,76,83,3.89,PH,1615166217
longyearbyen,78.2186,15.6401,10.4,52,20,9.22,SJ,1615166217
thompson,55.7435,-97.8558,35.6,60,1,3.44,CA,1615166217
vestmannaeyjar,63.4427,-20.2734,44.01,84,100,29.06,IS,1615166217
reconquista,-29.15,-59.65,71.06,40,0,4.52,AR,1615166217
duz,,,,,,,,
bosansko grahovo,44.1794,16.3639,27,53,55,7,BA,1615166218
vao,-22.6667,167.4833,75.56,76,33,16.42,NC,1615166218
novopskov,49.5464,39.0899,30.52,91,95,17.09,UA,1615166218
tigil,57.8,158.6667,-3.64,89,94,9.15,RU,1615166218
cap-aux-meules,47.3821,-61.8597,17.6,86,100,4.61,CA,1615166218
chokurdakh,70.6333,147.9167,-12.5,89,100,10.83,RU,1615166218
usinsk,65.9939,57.5281,-23.87,87,96,6.26,RU,1615166218
ponta do sol,32.6667,-17.1,57.99,74,75,1.01,PT,1615166218
hihifo,,,,,,,,
ban nahin,18.2418,104.2122,74.17,74,2,2.68,LA,1615166219
shingu,33.7333,135.9833,51.8,93,75,8.05,JP,1615166219
porto walter,-8.2686,-72.7439,73.69,91,74,2.04,BR,1615166219
kuhestan,,,,,,,,
nouadhibou,20.931,-17.0347,62.6,72,0,24.16,MR,1615166219
piacabucu,-10.4056,-36.4344,78.73,80,40,13.27,BR,1615166219
pemangkat,1.1667,108.9667,78.75,83,73,3.31,ID,1615166180
norman wells,65.282,-126.8329,-0.4,65,75,14.97,CA,1615166219
sulina,45.1559,29.6536,37,79,0,13.04,RO,1615166220
kenai,60.5544,-151.2583,30.2,46,1,6.91,US,1615166220
road town,18.4167,-64.6167,78.8,78,40,9.22,VG,1615166220
caravelas,-17.7125,-39.2481,78.46,84,100,6.78,BR,1615166220
campoverde,-8.4753,-74.8058,73.47,98,100,2.55,PE,1615166220
okhotsk,59.3833,143.3,-9.54,80,0,13.06,RU,1615166220
yerakion,37,22.7,52,87,24,3.44,GR,1615166221
saint anthony,45.0205,-93.218,55.4,66,1,5.75,US,1615166221
clarence town,-32.5833,151.7833,82.99,61,0,4.61,AU,1615166221
saint-francois,46.4154,3.9054,41,100,90,3.44,FR,1615166221
mount isa,-20.7333,139.5,89.6,45,0,14.97,AU,1615166221
general roca,-39.0333,-67.5833,77,38,0,11.5,AR,1615166222
coquimbo,-29.9533,-71.3436,62.6,88,90,4.61,CL,1615165996
biga,40.2281,27.2422,35.01,93,0,4.61,TR,1615166222
sanchazi,42.0817,126.6003,30.94,83,9,2.77,CN,1615166222
male,4.1748,73.5089,82.4,83,20,4.61,MV,1615166222
maceio,-9.6658,-35.7353,75.2,94,0,3.44,BR,1615166222
guerrero negro,27.9769,-114.0611,59.38,75,100,15.41,MX,1615166222
nara,34.6851,135.8049,51.01,81,75,3.44,JP,1615166222
ketchikan,55.3422,-131.6461,42.8,81,75,3.38,US,1615166222
arraial do cabo,-22.9661,-42.0278,75.34,84,100,3.22,BR,1615166222
goundam,16.4145,-3.6708,80.47,16,2,13.24,ML,1615166223
pevek,69.7008,170.3133,-14.01,88,100,20.69,RU,1615166223
wawa,9.9022,4.4192,81.88,26,0,5.66,NG,1615166223
ust-maya,60.4167,134.5333,-9.33,90,100,4.94,RU,1615166223
podgornoye,51.735,39.1496,28.4,93,90,6.71,RU,1615166223
senanga,-16.1167,23.2667,63.55,81,12,2.53,ZM,1615166224
bambous virieux,-20.3428,57.7575,78.01,94,75,8.05,MU,1615166224
ugoofaaru,5.6667,73,83.16,65,77,6.98,MV,1615166224
raga,8.4596,25.678,69.8,22,0,0.98,SS,1615166224
lorengau,-2.0226,147.2712,80.1,80,100,6.76,PG,1615166225
vardo,70.3705,31.1107,21.74,93,95,14.2,NO,1615166225
shalinskoye,55.7228,93.7594,5.86,89,27,5.32,RU,1615166225
pisco,-13.7,-76.2167,73.4,78,20,17.27,PE,1615166067
terrace,54.5163,-128.6035,37.4,75,75,4.61,CA,1615166225
celestun,20.8667,-90.4,73.04,65,0,15.61,MX,1615166225
leningradskiy,69.3833,178.4167,-11.31,88,100,5.5,RU,1615166225
lerwick,60.1545,-1.1494,41,75,90,17.27,GB,1615166226
yinchuan,38.4681,106.2731,45.25,59,67,4.25,CN,1615166226
kon tum,14.35,108,71.92,68,41,2.68,VN,1615166226
skovorodino,53.9833,123.9167,10.63,93,100,2.82,RU,1615166226
mosquera,4.7059,-74.2302,59,77,75,5.75,CO,1615166226
abu samrah,35.3029,37.1841,48.42,88,26,9.44,SY,1615166227
montes claros,-16.735,-43.8617,70.54,81,90,2.64,BR,1615166171
dillingen,49.35,6.7333,30.2,74,0,9.22,DE,1615166227
hendek,40.7994,30.7481,28.4,100,40,1.95,TR,1615166227
mayskiy,47.6931,40.1025,30.2,86,0,17.9,RU,1615166227
alamos,27.0167,-108.9333,71.01,56,78,1.01,MX,1615166228
kamenskoye,,,,,,,,
boda,4.3189,17.4695,70.93,59,100,4.45,CF,1615166228
faya,18.3851,42.4509,57.2,58,0,2.44,SA,1615166228
angoche,-16.2325,39.9086,76.37,88,98,7.81,MZ,1615166228
tessalit,20.1986,1.0114,76.32,18,85,8.75,ML,1615166228
batticaloa,7.7102,81.6924,79.27,83,63,2.44,LK,1615166228
puerto escondido,15.85,-97.0667,78.8,78,20,4.12,MX,1615166229
souillac,-20.5167,57.5167,77,94,75,8.05,MU,1615166229
serebryanyy bor,56.8,124.8,4.86,92,100,6.8,RU,1615166229
port-cartier,50.0334,-66.8654,23,63,0,8.05,CA,1615166229
tumannyy,,,,,,,,
alofi,-19.0595,-169.9187,80.6,89,75,11.5,NU,1615166229
stryn,61.9045,6.7226,28,90,96,5.64,NO,1615166229
kitui,-1.367,38.0106,64.31,95,81,4.97,KE,1615166229
cap malheureux,-19.9842,57.6142,78.01,85,97,1.99,MU,1615166230
kavieng,-2.5744,150.7967,82.76,77,100,11.72,PG,1615166230
ayorou,14.7308,0.9174,82.92,14,98,8.19,NE,1615166230
dhidhdhoo,6.8833,73.1,82.06,68,64,5.5,MV,1615166230
nikolskoye,59.7035,30.7861,21.2,73,90,13.42,RU,1615166230
san ignacio,17.1561,-89.0714,77,78,90,9.22,BZ,1615166230
sungaipenuh,-2.0833,101.3833,67.53,86,96,0.81,ID,1615166230
yurimaguas,-5.9,-76.0833,72.48,98,100,1.68,PE,1615166230
bojonegoro,-7.1502,111.8817,79.57,82,44,4.59,ID,1615166231
hovd,48.0056,91.6419,22.91,69,92,1.01,MN,1615166231
touros,-5.1989,-35.4608,77,88,20,2.3,BR,1615166231
santa ines,-3.6667,-45.38,74.44,97,100,3.29,BR,1615166232
corleone,37.8134,13.3017,55.99,87,34,4,IT,1615166232
talara,-4.5772,-81.2719,76.32,77,100,4.9,PE,1615166232
tsabong,-26.0217,22.401,75.16,37,19,8.59,BW,1615166232
carutapera,-1.195,-46.02,75.9,94,98,6.51,BR,1615166232
kangaatsiaq,68.3065,-53.4641,13.35,96,100,10.02,GL,1615166233
manaure,11.7751,-72.4445,80.02,75,54,19.13,CO,1615166170
bathsheba,13.2167,-59.5167,78.8,69,75,20.71,BB,1615166233
buala,-8.145,159.5921,83.44,75,100,6.44,SB,1615166233
lloro,5.4961,-76.5495,75.99,93,100,2.51,CO,1615166233
ngukurr,,,,,,,,
henties bay,-22.116,14.2845,62.01,91,14,1.99,NA,1615166233
igrim,63.1906,64.4162,-8.43,91,90,2.89,RU,1615166233
clyde river,70.4692,-68.5914,-22,76,1,2.3,CA,1615166233
mbandaka,0.0487,18.2603,72.7,91,100,6.46,CD,1615166233
terney,45.0503,136.6092,25.86,84,0,7.74,RU,1615166233
sosua,19.7667,-70.5167,77,94,75,2.55,DO,1615166234
sigli,5.3848,95.9609,79.43,75,86,4.7,ID,1615166234
luneburg,53.25,10.4,32,93,75,5.75,DE,1615166234
sao desiderio,-12.3633,-44.9733,73.49,78,7,1.05,BR,1615166234
saint-augustin,51.226,-58.6502,16.18,92,0,10,CA,1615166235
northam,51.0333,-4.2167,28.99,88,0,1.01,GB,1615166235
bengkulu,-3.8004,102.2655,77.59,78,100,6.38,ID,1615166235
quatre cocos,-20.2078,57.7625,78.01,94,75,8.05,MU,1615166235
ilo,-17.6394,-71.3375,72.64,82,79,5.48,PE,1615166235
berlevag,70.8578,29.0864,20.64,90,90,5.19,NO,1615166235
mentok,,,,,,,,
taikang,46.8333,124.4167,28.65,83,73,11.5,CN,1615166236
acapulco,16.8634,-99.8901,80.6,74,40,6.91,MX,1615165940
inverness,57.4791,-4.224,43,93,90,4.61,GB,1615166236
ahipara,-35.1667,173.1667,68.56,58,6,12.48,NZ,1615166236
fagersta,60.0042,15.7932,27,74,0,10.36,SE,1615166236
santa eulalia del rio,,,,,,,,
khandyga,62.6667,135.6,-17.81,83,89,3.22,RU,1615166236
yenagoa,4.9247,6.2642,79.25,90,61,5.12,NG,1615166237
ngaoundere,7.3167,13.5833,68.29,23,39,3.56,CM,1615166120
purpe,64.4803,76.6897,-3.59,93,100,6.33,RU,1615166237
lensk,60.7253,114.9278,17.67,95,100,8.39,RU,1615166237
south venice,27.0531,-82.4243,63,48,1,9.22,US,1615166237
alyangula,-13.8483,136.4192,87.8,74,40,8.05,AU,1615166237
saint-paul,-21.0096,55.2707,78.8,83,75,8.05,RE,1615166105
willmar,45.1219,-95.0433,54,62,1,3.44,US,1615166238
alta floresta,-9.8756,-56.0861,72.72,98,100,4.18,BR,1615166238
vanavara,60.34,102.2797,14.72,94,100,13.13,RU,1615166238
guozhen,34.3659,107.359,46.81,59,87,4.99,CN,1615166238
beringovskiy,63.05,179.3167,19.53,91,63,21.94,RU,1615166238
coihaique,-45.5752,-72.0662,50,46,20,10.36,CL,1615166239
anadyr,64.75,177.4833,-5.01,77,75,2.24,RU,1615166239
nyurba,63.2842,118.3319,14.72,96,100,1.48,RU,1615166239
atambua,-9.1061,124.8925,80.47,75,0,2.59,ID,1615166239
oussouye,12.485,-16.5469,73.4,73,0,2.3,SN,1615166239
jumla,29.2747,82.1838,43.99,60,99,6.33,NP,1615166104
bambanglipuro,-7.95,110.2833,81.03,71,46,3.91,ID,1615166239
shizunai,42.3339,142.3669,33.57,89,99,15.86,JP,1615166240
tsihombe,,,,,,,,
chicama,-7.8447,-79.1469,75.6,68,100,4.61,PE,1615166240
pauini,-7.7136,-66.9764,75.7,93,100,1.3,BR,1615166240
montepuez,-13.1256,38.9997,69.22,99,100,2.89,MZ,1615166240
basco,20.4487,121.9702,76.03,83,29,19.48,PH,1615166240
arys,42.4252,68.795,42.8,87,75,4.47,KZ,1615166241
mys shmidta,,,,,,,,
rocha,-34.4833,-54.3333,64.76,94,0,7.9,UY,1615166186
north little rock,34.7695,-92.2671,57,50,75,6.91,US,1615165994
san lorenzo,-25.3333,-57.5333,75.2,73,0,5.75,PY,1615166241
taltal,-25.4,-70.4833,66.38,77,0,4.92,CL,1615166241
haines junction,60.7522,-137.5108,26.6,43,100,6.91,CA,1615166242
eyl,7.9803,49.8164,71.96,86,22,12.33,SO,1615166242
farafangana,-22.8167,47.8333,74.08,85,48,6.96,MG,1615166242
mukhtolovo,55.4644,43.1953,13.64,97,100,6.93,RU,1615166242
beidao,34.5686,105.8933,47.53,67,66,3.02,CN,1615166242
boa vista,2.8197,-60.6733,77,78,0,5.75,BR,1615166242
kedrovyy,56.1667,91.8167,1.4,85,0,4.54,RU,1615166242
sesheke,-17.4759,24.2968,64.2,75,65,2.37,ZM,1615166243
omboue,-1.5746,9.2618,77.61,88,98,2.64,GA,1615166243
corrientes,-27.4806,-58.8341,78.8,50,0,9.22,AR,1615166243
hithadhoo,-0.6,73.0833,82.9,66,1,7.85,MV,1615166243
phrai bung,,,,,,,,
ambilobe,-13.2,49.05,73.78,96,100,2.73,MG,1615166243
danjiangkou,32.5428,111.5086,43.52,79,100,4.85,CN,1615166244
conceicao da barra,-18.5933,-39.7322,76.66,89,100,7.85,BR,1615166244
impfondo,1.6381,18.0667,74.98,77,100,4.99,CG,1615166244
tilichiki,60.4667,166.1,-16.13,82,63,15.88,RU,1615166244
ishigaki,24.3448,124.1572,71.6,83,75,13.8,JP,1615166244
petropavlovsk-kamchatskiy,53.0452,158.6483,12.2,40,0,15.66,RU,1615166031
namatanai,-3.6667,152.4333,81.3,78,100,8.7,PG,1615166244
beshpagir,45.0217,42.3808,19.4,73,0,8.95,RU,1615166244
derzhavinsk,51.1,66.3167,16.68,96,100,13.6,KZ,1615166244
comodoro rivadavia,-45.8667,-67.5,57.2,41,0,11.5,AR,1615166244
rabo de peixe,37.8,-25.5833,60.8,94,40,13.8,PT,1615166244
mafinga,-7.25,35.0667,65.62,100,100,2.17,TZ,1615166245
staroutkinsk,57.2302,59.3348,-3.8,92,97,4.18,RU,1615166245
igarka,67.4667,86.5833,-19.82,87,85,4.16,RU,1615166245
santa marta,11.2408,-74.199,82.99,74,99,17.27,CO,1615166245
gisborne,-38.6533,178.0042,68,64,0,4,NZ,1615166245
shimoda,34.6667,138.95,48.2,93,75,16.11,JP,1615166246
izhevskoye,54.5567,40.8703,14.41,94,0,10.04,RU,1615166246
pakxan,18.3778,103.6601,75.25,66,62,2.55,LA,1615166246
antofagasta,-23.65,-70.4,68,77,20,6.91,CL,1615166246
burnie,-41.0667,145.9167,58.21,79,100,4.54,AU,1615166247
luwuk,-0.9516,122.7875,79,73,99,2.77,ID,1615166247
tinogboc,12.0074,121.4122,79.63,80,2,23.76,PH,1615166247
vaitupu,,,,,,,,
nortelandia,-14.4547,-56.8028,73.09,94,100,4.92,BR,1615166247
novokizhinginsk,51.6115,109.5917,20.82,93,47,4.34,RU,1615166247
vaitape,-16.5167,-151.75,82.44,78,100,18.25,PF,1615166247
kitob,39.0843,66.8332,35.6,93,100,6.91,UZ,1615166248
paradwip,,,,,,,,
sechura,-5.5569,-80.8222,80.24,62,100,10.96,PE,1615166248
codrington,-38.2667,141.9667,58.89,88,100,8.16,AU,1615166248
chernyshevskiy,63.0128,112.4714,6.89,96,91,2.39,RU,1615166248
bundaberg,-24.85,152.35,86,48,75,12.66,AU,1615166248
carauari,-4.8828,-66.8958,74.86,93,89,1.07,BR,1615166249
ongandjera,-17.8833,15.0667,73.74,48,14,7.83,NA,1615166249
petersburg,37.2279,-77.4019,39.99,64,1,3.53,US,1615166249
tsiroanomandidy,-18.7667,46.0333,64.31,96,4,0.96,MG,1615166249
kaeo,-35.1,173.7833,72,59,0,10,NZ,1615166249
sorong,-0.8833,131.25,80.98,79,100,0.31,ID,1615166249
elko,41.0002,-115.5012,57.2,21,1,7.63,US,1615166250
buffalo,42.8865,-78.8784,27,63,75,5.75,US,1615166250
agde,43.3108,3.4758,48,95,100,7,FR,1615166250
trairi,-3.2778,-39.2689,77.79,89,100,8.28,BR,1615166250
okha,53.5739,142.9478,5.05,89,0,15.3,RU,1615166250
mahebourg,-20.4081,57.7,77,94,75,8.05,MU,1615166186
margate,51.3813,1.3862,37.99,72,0,1.01,GB,1615166250
chute-aux-outardes,49.1168,-68.399,17.6,62,1,9.22,CA,1615166250
gamba,-2.65,10,76.33,88,31,2.53,GA,1615166251
yarada,17.65,83.2667,75.2,100,20,2.3,IN,1615166251
ejura,7.3856,-1.3562,78.73,75,94,7.7,GH,1615166252
viligili,,,,,,,,
provideniya,64.3833,-173.3,32.45,96,100,14.03,RU,1615166252
tanabe,33.7333,135.3667,51.8,93,75,8.05,JP,1615166252
khorinsk,52.1657,109.7726,18.37,94,1,4.07,RU,1615166252
riyadh,24.6877,46.7219,60.8,33,0,8.01,SA,1615166253
corner brook,48.9667,-57.9484,26.6,80,90,10.36,CA,1615166253
the valley,18.217,-63.0578,79,78,20,10.36,AI,1615166253
buin,-33.7333,-70.75,77,50,0,5.75,CL,1615166253
baykit,61.67,96.37,10.45,91,90,7.76,RU,1615166253
beatrice,40.2681,-96.747,60.01,47,99,5.99,US,1615166254
baker city,44.7749,-117.8344,44.6,53,75,3.44,US,1615166254
biu,10.6129,12.1946,72.64,17,72,6.46,NG,1615166254
makat,47.6469,53.3463,26.28,88,32,9.17,KZ,1615166254
ambulu,-8.345,113.6058,81.57,71,4,1.83,ID,1615166254
vostok,46.4856,135.8833,14.09,95,100,4.99,RU,1615166254
paamiut,61.994,-49.6678,28.04,97,100,7.47,GL,1615166254
barra de sao francisco,-18.755,-40.8908,74.98,88,99,1.21,BR,1615166103
domoni,-12.2569,44.5319,79.16,82,62,8.68,KM,1615166255
calama,-22.4667,-68.9333,62.6,34,0,14.97,CL,1615166255
matara,5.9485,80.5353,75.78,87,16,8.03,LK,1615166255
dunedin,-45.8742,170.5036,57,61,100,20,NZ,1615166256
khristoforovo,,,,,,,,
chingirlau,51.095,54.0814,15.12,93,100,18.7,KZ,1615166256
gat,31.61,34.7642,52,100,0,2.17,IL,1615166256
la ronge,55.1001,-105.2842,42.8,42,100,4.61,CA,1615166256
armacao dos buzios,,,,,,,,
labutta,,,,,,,,
san cristobal,7.7669,-72.225,77,83,75,2.3,VE,1615166256
yatou,37.15,122.3833,40.01,59,0,0.74,CN,1615166257
formosa,-26.1775,-58.1781,75.2,73,0,5.75,AR,1615166257
medeiros neto,-17.3739,-40.2206,75.54,80,100,2.62,BR,1615166257
kayasula,44.325,45,30.33,84,0,5.5,RU,1615166257
bom sucesso,-21.0331,-44.7581,64.58,93,89,1.41,BR,1615166257
wulanhaote,,,,,,,,
bowen,-20.0167,148.2333,82.4,69,75,5.75,AU,1615166257
ust-bolsheretsk,,,,,,,,
hwange,-18.3693,26.5019,64.35,73,0,1.79,ZW,1615166258
hami,42.8,93.45,40.53,60,100,0.6,CN,1615166258
vondrozo,-22.8167,47.2833,65.44,100,37,2.82,MG,1615166258
puerto cabezas,14.0351,-83.3888,75.97,77,0,12.19,NI,1615166258
belaya gora,68.5333,146.4167,-7.78,90,98,10.65,RU,1615166259
dvinskoy,62.1535,45.1175,-0.2,92,67,8.39,RU,1615166259
terekli-mekteb,44.1671,45.8698,30.99,85,0,6.53,RU,1615166259
aklavik,68.2191,-135.0107,-7.6,71,10,5.75,CA,1615166259
christchurch,-43.5333,172.6333,64.4,36,40,13.8,NZ,1615166060
levelland,33.5873,-102.378,60.8,39,20,13.8,US,1615166259
kalianget,-7.05,113.9333,81.48,77,81,11.34,ID,1615166259
samarai,-10.6167,150.6667,80.64,76,93,3.24,PG,1615166259
pimenteiras,-6.2453,-41.4192,73.58,69,36,4.5,BR,1615166260
erdenet,49.0333,104.0833,23.4,80,52,3.78,MN,1615166260
naze,28.3667,129.4833,69.8,78,20,6.91,JP,1615166260
ancud,-41.8697,-73.8203,57,82,75,3.44,CL,1615166260
suamico,44.6319,-88.0393,35.6,69,1,12.66,US,1615166260
pitea,65.3172,21.4794,14,73,23,10.36,SE,1615166260
okakarara,-20.5833,17.4333,68.29,56,77,5.93,NA,1615166261
campobello di mazara,37.6358,12.7443,55.4,100,20,9.22,IT,1615166261
arman,59.7,150.1667,-2.63,77,0,3.62,RU,1615166261
pilar,-9.5972,-35.9567,75.2,94,0,3.44,BR,1615166261
ipora,-16.4419,-51.1178,68.2,98,100,1.59,BR,1615166261
tianpeng,30.9866,103.9393,53.01,1,86,6.31,CN,1615166262
mount gambier,-37.8333,140.7667,60.8,82,90,12.66,AU,1615166262
pasighat,28.0667,95.3333,66.9,44,75,3.96,IN,1615166262
warqla,,,,,,,,
fort saint john,,,,,,,,
champerico,14.3,-91.9167,86,62,40,6.91,GT,1615166262
ust-kamchatsk,,,,,,,,
vanimo,-2.6741,141.3028,86.16,61,100,0.98,PG,1615166262
ouagadougou,12.3642,-1.5383,89.6,19,6,5.75,BF,1615166262
sumoto,34.35,134.9,48.2,76,75,10.36,JP,1615166263
sherbakul,54.6316,72.3963,30.2,100,75,17.9,RU,1615166263
petropavl,54.8753,69.1628,9.1,95,99,11.72,KZ,1615166263
toora-khem,52.4675,96.11,12.51,92,0,2.1,RU,1615166263
alice springs,-23.7,133.8833,87.8,23,0,6.91,AU,1615166263
botelhos,-21.6333,-46.395,62.85,96,100,2.06,BR,1615166263
ilhabela,-23.7781,-45.3581,73.51,84,88,2.82,BR,1615166263
mehran,33.1222,46.1646,56.97,36,52,2.44,IR,1615166264
surman,32.7567,12.5716,63.88,49,20,23.89,LY,1615166264
tibati,6.4667,12.6333,65.35,28,28,2.64,CM,1615166264
lingao,19.9103,109.6859,72.9,85,76,14.16,CN,1615166264
neepawa,50.2289,-99.4664,37.4,70,20,12.66,CA,1615166264
boguchany,58.3814,97.4531,10,94,92,6.53,RU,1615166264
naron,43.5167,-8.1528,48.99,87,20,2.3,ES,1615166264
ixtapa,20.7,-105.2,75.2,78,40,8.05,MX,1615166264
sayyan,15.1718,44.3244,50.34,46,0,2.93,YE,1615166265
itarema,-2.9248,-39.9167,78.39,84,100,8.39,BR,1615166265
burley,42.5357,-113.7928,53.6,30,1,8.05,US,1615166265
marsa matruh,31.3525,27.2453,53.6,82,0,5.75,EG,1615166265
owensboro,37.7742,-87.1133,51.8,37,1,3.44,US,1615166265
siderno,38.2779,16.302,55.4,71,75,8.05,IT,1615166265
punto fijo,11.6956,-70.1996,78.58,80,14,25.34,VE,1615166265
la maddalena,41.2142,9.4083,53.6,76,75,8.05,IT,1615166265
kerman,30.2832,57.0788,35.6,55,0,2.75,IR,1615166265
ruatoria,,,,,,,,
izhmorskiy,56.194,86.6414,11.53,94,100,7.92,RU,1615166266
rosarito,32.3333,-117.0333,55.4,82,90,19.57,MX,1615166267
flinders,-34.5833,150.8552,81,67,100,1.01,AU,1615166267
catamarca,-28.4696,-65.7852,66.99,81,0,11.63,AR,1615166267
mogadishu,2.0371,45.3438,77.31,83,47,17.78,SO,1615166268
kamaishi,39.2667,141.8833,35.6,55,75,3.44,JP,1615166268
la asuncion,11.0333,-63.8628,76.06,89,12,16.51,VE,1615166268
tura,25.5198,90.2201,65.37,47,0,3,IN,1615166128
madang,-5.2246,145.7966,83.07,69,100,4.21,PG,1615166268
tubruq,,,,,,,,
luba,3.4568,8.5547,78.8,94,20,6.91,GQ,1615166268
kaili,-3.4626,120.2147,70,91,100,0.72,ID,1615166268
mayumba,-3.432,10.6554,77.36,83,97,3.56,GA,1615166269
jacareacanga,-6.2222,-57.7528,75.79,95,100,1.1,BR,1615166269
airai,-8.9266,125.4092,70.9,81,16,2.13,TL,1615166269
borama,,,,,,,,
araouane,18.9048,-3.5265,77.25,18,41,11.48,ML,1615166270
aden,12.7794,45.0367,77.76,70,0,10.92,YE,1615166194
ambovombe,-25.1667,46.0833,71.29,83,11,7.43,MG,1615166270
pundaguitan,6.3711,126.1689,80.55,73,100,7.9,PH,1615166270
kruisfontein,-34.0033,24.7314,66.99,81,17,1.99,ZA,1615166163
abu dhabi,24.4667,54.3667,66.2,77,20,2.3,AE,1615166270
sterling,39.0062,-77.4286,36,55,1,5.75,US,1615165983
lardos,36.0942,28.0157,55.4,67,0,12.66,GR,1615166270
najran,17.4924,44.1277,60.8,41,0,3.15,SA,1615166270
poum,-20.2333,164.0167,78.76,75,72,10.04,NC,1615166271
loei,17.4167,101.5,79,100,90,3.44,TH,1615166271
leon,21.1167,-101.6667,80.6,12,1,9.53,MX,1615166166
kropotkin,45.4375,40.5756,29.34,89,10,9.33,RU,1615166271
racale,39.9631,18.0938,43,100,0,2.3,IT,1615166271
mujiayingzi,42.1167,118.7833,37.13,67,0,6.42,CN,1615166271
drinovci,43.355,17.3539,28.4,86,0,2.3,BA,1615166271
ulladulla,-35.35,150.4667,80.6,50,0,5.75,AU,1615166271
sao joao da barra,-21.6403,-41.0511,72.73,90,100,4.29,BR,1615166272
balikpapan,-1.2675,116.8289,84.2,74,40,6.91,ID,1615166272
guaymas,27.9333,-110.9,75,46,40,16.11,MX,1615166016
saiha,22.4833,92.9667,62.4,62,0,3.56,IN,1615166272
predivinsk,57.0669,93.4378,3.92,93,59,4.74,RU,1615166272
san carlos de bariloche,-41.1456,-71.3082,53.6,54,20,11.5,AR,1615166272
ihosy,-22.4,46.1167,64.9,91,55,4.47,MG,1615166272
daxian,,,,,,,,
mantua,45.1667,10.7833,36,87,0,1.99,IT,1615166272
karaul,,,,,,,,
pacific grove,36.6177,-121.9166,57.2,62,1,11.5,US,1615166081
aksum,14.1245,38.7244,52.18,46,0,3.44,ET,1615166272
chlorakas,34.8042,32.4083,62.6,72,16,10.36,CY,1615166272
bahir dar,11.5936,37.3908,69.44,30,10,4.94,ET,1615166273
ouadda,8.0777,22.4007,72.64,25,43,2.68,CF,1615166273
baruun-urt,46.6806,113.2792,21.06,88,0,9.66,MN,1615166273
pombas,17.1503,-25.0201,69.8,64,40,36.82,CV,1615166172
poronaysk,49.2167,143.1167,12.7,90,0,2.1,RU,1615166273
saint-pierre,-21.3393,55.4781,77,83,9,5.75,RE,1615166274
yevsino,54.4172,83.3222,24.01,83,100,5.01,RU,1615166274
klyuchi,52.2667,79.1667,21.38,94,100,13.87,RU,1615166274
lasa,46.6166,10.7002,36,86,0,4.61,IT,1615166274
yumen,40.2833,97.2,32.47,77,11,10.33,CN,1615166274
grand river south east,,,,,,,,
aranda de duero,41.6704,-3.6892,44.17,75,97,5.37,ES,1615166275
dauriya,49.9333,116.8667,13.35,93,100,3.13,RU,1615166275
tukrah,32.5341,20.5791,56.62,68,0,9.95,LY,1615166275
rockland,41.1668,-74.0496,34,54,12,9.22,US,1615166275
davila,18.4726,120.5763,82.4,61,20,4.61,PH,1615166275
karsun,54.1994,46.9827,26.96,97,99,19.3,RU,1615166275
tuy hoa,13.0833,109.3,78.19,81,11,9.19,VN,1615166276
sabang,5.8933,95.3214,82.17,76,51,10.6,ID,1615166276
khairabad,27.5333,80.75,65.52,28,90,6.82,IN,1615166276
loandjili,-4.7561,11.8578,77,94,20,2.3,CG,1615166276
port hardy,50.6996,-127.4199,44.6,75,75,8.05,CA,1615166276
zhigalovo,54.8097,105.1578,15.31,93,52,8.88,RU,1615166276
meilu,,,,,,,,
ilulissat,69.2167,-51.1,15.8,73,54,11.5,GL,1615166277
prince rupert,54.3161,-130.3201,46.4,57,75,5.75,CA,1615166277
skelleftea,64.7507,20.9528,21.2,53,22,8.05,SE,1615166277
east wenatchee,47.4157,-120.2931,46.99,45,20,11.5,US,1615165993
beloha,-25.1667,45.05,68.31,90,0,5.7,MG,1615166277
katiola,8.1333,-5.1,73.4,94,20,4.61,CI,1615166277
laguna,38.421,-121.4238,64.4,34,1,1.19,US,1615166278
cayenne,4.9333,-52.3333,79,89,75,2.3,GF,1615166278
ilave,-16.0833,-69.6667,43.41,86,64,4.07,PE,1615166278
deputatskiy,69.3,139.9,-16.08,88,100,5.19,RU,1615166278
taoudenni,22.6783,-3.9836,67.73,24,0,8.75,ML,1615166278
